,ID,Station Name,Total Docks,Docks in Service,Status,Latitude,Longitude,Location,community_area
0,1594046383808271024,Troy St & Jackson Blvd,9,9,In Service,41.877505,-87.70485,"(41.877505, -87.70485)",EAST_GARFIELD_PARK
1,641,Central Park Ave & Bloomingdale Ave,11,11,In Service,41.914166,-87.716755,"(41.914166, -87.716755)",LOGAN_SQUARE
2,1683527931525155814,Public Rack - Cornell Ave & 87th Pl,1,1,In Service,41.73688127,-87.58314552,"(41.73688127, -87.58314552)",CALUMET_HEIGHTS
3,367,Racine Ave & 35th St,15,15,In Service,41.830688565,-87.656210661,"(41.83068856472101, -87.65621066093445)",BRIDGEPORT
4,1673852313397164648,Public Rack - Francisco Ave & Touhy Ave,2,2,In Service,42.011865,-87.701317,"(42.011865, -87.701317)",WEST_RIDGE
5,648,Carpenter St & 63rd St,7,7,In Service,41.77987,-87.650919,"(41.77987, -87.650919)",ENGLEWOOD
6,427,Cottage Grove Ave & 63rd St,15,15,In Service,41.780530941,-87.605970204,"(41.78053094070882, -87.6059702038765)",WOODLAWN
7,758,Lincoln Ave & Roscoe St*,16,16,In Service,41.943350247,-87.670667768,"(41.9433502470174, -87.67066776752472)",LAKE_VIEW
8,644,Western Ave & Fillmore St,11,11,In Service,41.868563,-87.686234,"(41.868563, -87.686234)",NEAR_WEST_SIDE
9,503,St. Louis Ave & Fullerton Ave,15,15,In Service,41.924815597,-87.714495063,"(41.92481559681187, -87.71449506282805)",LOGAN_SQUARE
10,1673852313397164652,Public Rack - California Ave & Touhy Ave - midblock,1,1,In Service,42.012207,-87.700474,"(42.012207, -87.700474)",WEST_RIDGE
11,643,Smith Park,15,15,In Service,41.892048,-87.689397,"(41.892048, -87.689397)",WEST_TOWN
12,640,Bernard St & Elston Ave,11,11,In Service,41.949923,-87.713949,"(41.949923, -87.713949)",IRVING_PARK
13,637,Wood St & Chicago Ave,15,15,In Service,41.895634,-87.672069,"(41.895634, -87.672069)",WEST_TOWN
14,761,Bissell St & Armitage Ave*,16,16,In Service,41.918295563,-87.652183324,"(41.9182955629354, -87.65218332409859)",LINCOLN_PARK
15,718,Ewing Ave & Burnham Greenway,11,11,In Service,41.712748761,-87.534813881,"(41.71274876109496, -87.53481388092041)",EAST_SIDE
16,690,State St & 95th St,15,15,In Service,41.7218499,-87.6228544,"(41.7218499, -87.6228544)",ROSELAND
17,566,Damen Ave & 74th St,11,11,In Service,41.759274039,-87.673634291,"(41.759274039331224, -87.67363429069519)",WEST_ENGLEWOOD
18,1673852317692131950,Public Rack - California Ave & Touhy Ave - SW,1,1,In Service,42.011867,-87.700407,"(42.011867, -87.700407)",WEST_RIDGE
19,650,Eggleston Ave & 69th St,11,11,In Service,41.768898,-87.635876,"(41.768898, -87.635876)",ENGLEWOOD
20,1677249767994562566,Public Rack - Sawyer Ave & Bryn Mawr Ave - SW,1,1,In Service,41.982879,-87.710534,"(41.982879, -87.710534)",NORTH_PARK
21,674,Michigan Ave & 71st St,7,7,In Service,41.765286,-87.621748,"(41.765286, -87.621748)",GREATER_GRAND_CROSSING
22,1436495096608724634,N Clark St & W Elm St,4,4,In Service,41.902901,-87.631282,"(41.902901, -87.631282)",NEAR_NORTH_SIDE
23,664,Leavitt St & Belmont Ave,15,15,In Service,41.939354,-87.683282,"(41.939354, -87.683282)",NORTH_CENTER
24,656,Damen Ave & Walnut (Lake) St,15,15,In Service,41.885951,-87.677009,"(41.885951, -87.677009)",NEAR_WEST_SIDE
25,1563698722681128992,Sayre & Diversey,9,9,In Service,41.9310084,-87.8010646,"(41.9310084, -87.8010646)",MONTCLARE
26,658,Leavitt St & Division St,15,15,In Service,41.902997,-87.683825,"(41.902997, -87.683825)",WEST_TOWN
27,1436495105198659242,W Armitage Ave & N Sheffield Ave,8,8,In Service,41.917805,-87.653449,"(41.917805, -87.653449)",LINCOLN_PARK
28,649,Stewart Ave & 63rd St,11,11,In Service,41.779835,-87.634774,"(41.779835, -87.634774)",ENGLEWOOD
29,632,Clark St & Newport St,15,15,In Service,41.94454,-87.654678,"(41.94454, -87.654678)",LAKE_VIEW
30,1436495100903691938,W Oakdale Ave & N Broadway,6,6,In Service,41.935581,-87.644042,"(41.935581, -87.644042)",LAKE_VIEW
31,654,Racine Ave & Washington Blvd,11,11,In Service,41.883073,-87.656952,"(41.883073, -87.656952)",NEAR_WEST_SIDE
32,446,Western & 28th - Velasquez Institute Vaccination Site,11,11,In Service,41.841517708,-87.685131441,"(41.84151770807, -87.6851314409)",LOWER_WEST_SIDE
33,1448642162257565290,S Aberdeen St & W 106th St,3,3,In Service,41.701217,-87.649345,"(41.701217, -87.649345)",WASHINGTON_HEIGHTS
34,1563698709796227086,Kostner Ave & Wrightwood Ave,9,9,In Service,41.9279399,-87.7359921,"(41.9279399, -87.7359921)",HERMOSA
35,192,Canal St & Adams St,47,47,In Service,41.879255,-87.639904,"(41.879255, -87.639904)",NEAR_WEST_SIDE
36,759,Wilton Ave & Diversey Pkwy*,32,32,In Service,41.932418,-87.652705,"(41.932418, -87.652705)",LINCOLN_PARK
37,763,Morgan St & Lake St*,20,20,In Service,41.885491706,-87.652289271,"(41.88549170626906, -87.65228927135468)",NEAR_WEST_SIDE
38,1436495122378528446,N Paulina St & Lincoln Ave,6,6,In Service,41.943838,-87.671469,"(41.943838, -87.671469)",LAKE_VIEW
39,1673852330577033842,Public Rack - Rockwell Ave & Touhy Ave,2,2,In Service,42.012344,-87.695383,"(42.012344, -87.695383)",WEST_RIDGE
40,1436495118083561146,N Sheffield Ave & W Wellington Ave,6,6,In Service,41.9362263,-87.6537676,"(41.9362263, -87.6537676)",LAKE_VIEW
41,1674190140762761456,Public Rack - 2302 S Pulaski Rd,1,1,In Service,41.849437,-87.724879,"(41.849437, -87.724879)",NORTH_LAWNDALE
42,1674190153647663366,Public Rack - Al Raby School,3,3,In Service,41.886167,-87.714711,"(41.886167, -87.714711)",EAST_GARFIELD_PARK
43,1571105055115583500,Roscoe & Harlem,9,9,In Service,41.9416062,-87.8072964,"(41.9416062, -87.8072964)",DUNNING
44,1674190183712434506,Public Rack - Avers Ave & Irving Park Rd,2,2,In Service,41.953789,-87.724161,"(41.953789, -87.724161)",IRVING_PARK
45,1571105042230683636,Oketo Ave & Addison St,9,9,In Service,41.9449659,-87.8118989,"(41.9449659, -87.8118989)",DUNNING
46,1563698709796227088,Kilbourn & Belden,9,9,In Service,41.922352,-87.739024,"(41.922352, -87.739024)",HERMOSA
47,1575949510978564828,North Ave & New England Ave,9,9,In Service,41.9092204,-87.7971406,"(41.9092204, -87.7971406)",AUSTIN
48,1674190183712434508,Public Rack - Avers Ave & Ogden Ave,2,2,In Service,41.852642,-87.72103,"(41.852642, -87.72103)",NORTH_LAWNDALE
49,1674190188007401806,Public Rack - Avondale Ave & Addison St,4,4,In Service,41.94655,-87.719827,"(41.94655, -87.719827)",IRVING_PARK
50,1674190209482238320,Public Rack - California Ave & Cortez St,2,2,In Service,41.900105,-87.696817,"(41.900105, -87.696817)",WEST_TOWN
51,1674190209482238322,Public Rack - California Ave & Devon Ave - NE,1,1,In Service,41.99826,-87.699481,"(41.99826, -87.699481)",WEST_RIDGE
52,1674190213777205620,Public Rack - California Ave & Devon Ave - NW,2,2,In Service,41.998481,-87.69985,"(41.998481, -87.69985)",WEST_RIDGE
53,1674190213777205624,Public Rack - California Ave & Ogden Ave,1,1,In Service,41.8608706,-87.695681,"(41.8608706, -87.695681)",NORTH_LAWNDALE
54,1674190230957074838,Public Rack - Central Park Ave & Fillmore St,1,1,In Service,41.8680617,-87.7153897,"(41.8680617, -87.7153897)",NORTH_LAWNDALE
55,1674190230957074840,Public Rack - Central Park Ave & Ogden Ave,3,3,In Service,41.8543385,-87.7151584,"(41.8543385, -87.7151584)",NORTH_LAWNDALE
56,1674190235252042148,Public Rack - Chase Ave & Touhy Ave - NE,4,4,In Service,42.014539,-87.6901359,"(42.014539, -87.6901359)",WEST_RIDGE
57,1674190235252042152,Public Rack - Chase Ave & Touhy Ave - NW,1,1,In Service,42.014271,-87.690408,"(42.014271, -87.690408)",WEST_RIDGE
58,1674190239547009450,Public Rack - Chopin Park,1,1,In Service,41.942675,-87.761899,"(41.942675, -87.761899)",PORTAGE_PARK
59,1674190239547009458,Public Rack - Christiana Ave & Belmont Ave,6,6,In Service,41.93917,-87.71169,"(41.93917, -87.71169)",AVONDALE
60,1674190243841976756,Public Rack - Cicero Ave & Altgeld St,2,2,In Service,41.925734,-87.746414,"(41.925734, -87.746414)",BELMONT_CRAGIN
61,1674190243841976758,Public Rack - Cicero Ave & Cortland St - midblock,1,1,In Service,41.91582,-87.746074,"(41.91582, -87.746074)",BELMONT_CRAGIN
62,1674190248136944056,Public Rack - Cicero Ave & Le Moyne St - midblock,1,1,In Service,41.906919,-87.74623,"(41.906919, -87.74623)",AUSTIN
63,1674190252431911356,Public Rack - Cicero Ave & North Ave,1,1,In Service,41.909329,-87.745838,"(41.909329, -87.745838)",AUSTIN
64,1674190256726878654,Public Rack - Cicero Ave & Roscoe St,1,1,In Service,41.9424235,-87.74713,"(41.9424235, -87.74713)",PORTAGE_PARK
65,1674190256726878658,Public Rack - Cicero Ave & Wellington Ave,2,2,In Service,41.935779,-87.746581,"(41.935779, -87.746581)",BELMONT_CRAGIN
66,1674190256726878660,Public Rack - Cicero Ave & Wrightwood Ave,4,4,In Service,41.927944,-87.7466394,"(41.927944, -87.7466394)",BELMONT_CRAGIN
67,1674190286791649784,Public Rack - Eli Whitney Public School,1,1,In Service,41.840249,-87.725472,"(41.840249, -87.725472)",SOUTH_LAWNDALE
68,1674190308266486306,Public Rack - Franklin Park,2,2,In Service,41.861493,-87.733404,"(41.861493, -87.733404)",NORTH_LAWNDALE
69,1674190325446355528,Public Rack - Hamlin Ave & Chicago Ave,1,1,In Service,41.895201,-87.721541,"(41.895201, -87.721541)",HUMBOLDT_PARK
70,1674190325446355532,Public Rack - Hamlin Ave & Fullerton Ave,2,2,In Service,41.924319,-87.721446,"(41.924319, -87.721446)",LOGAN_SQUARE
71,1674190329741322832,Public Rack - Hamlin Ave & Grand Ave,3,3,In Service,41.903738,-87.720287,"(41.903738, -87.720287)",HUMBOLDT_PARK
72,1674190329741322834,Public Rack - Hamlin Ave & Montrose Ave,3,3,In Service,41.961216,-87.722416,"(41.961216, -87.722416)",ALBANY_PARK
73,1674190364101061260,Public Rack - Karlov Ave & 26th St,1,1,In Service,41.844287,-87.727078,"(41.844287, -87.727078)",SOUTH_LAWNDALE
74,1674190364101061262,Public Rack - Karlov Ave & Kamerling Ave,2,2,In Service,41.905621,-87.728636,"(41.905621, -87.728636)",HUMBOLDT_PARK
75,1674190368396028562,Public Rack - Kedvale Ave & Avondale Ave,2,2,In Service,41.952874,-87.731229,"(41.952874, -87.731229)",IRVING_PARK
76,1674190381280930480,Public Rack - Kedzie Ave & Argyle St,2,2,In Service,41.972097,-87.708572,"(41.972097, -87.708572)",ALBANY_PARK
77,1674190385575897778,Public Rack - Kedzie Ave & Arthington St,1,1,In Service,41.8700949,-87.7062429,"(41.8700949, -87.7062429)",EAST_GARFIELD_PARK
78,1674190402755766968,Public Rack - Keeler Ave & 26th St,1,1,In Service,41.844058,-87.729873,"(41.844058, -87.729873)",SOUTH_LAWNDALE
79,1674190407050734272,Public Rack - Kenton Ave & Palmer St,1,1,In Service,41.9206781,-87.7419523,"(41.9206781, -87.7419523)",BELMONT_CRAGIN
80,1674190407050734276,Public Rack - Keystone Ave & Irving Park Rd,2,2,In Service,41.953449,-87.729635,"(41.953449, -87.729635)",IRVING_PARK
81,1674190411345701574,Public Rack - Keystone Ave & North Ave,1,1,In Service,41.909623,-87.727951,"(41.909623, -87.727951)",HUMBOLDT_PARK
82,1448642162257565286,S Wentworth Ave & W 111th St,5,5,In Service,41.6926176,-87.6280518,"(41.6926176, -87.6280518)",ROSELAND
83,1674190415640668880,Public Rack - Kimball Ave & Carmen Ave,3,3,In Service,41.973896,-87.713297,"(41.973896, -87.713297)",NORTH_PARK
84,1674190424230603490,Public Rack - Kostner Ave & North Ave,2,2,In Service,41.908816,-87.736463,"(41.908816, -87.736463)",HUMBOLDT_PARK
85,1674190437115505410,Public Rack - Laramie Ave & Belmont Ave,2,2,In Service,41.9386855,-87.75563,"(41.9386855, -87.75563)",BELMONT_CRAGIN
86,1674190437115505412,Public Rack - Laramie Ave & Fullerton Ave,2,2,In Service,41.9240754,-87.7568589,"(41.9240754, -87.7568589)",BELMONT_CRAGIN
87,1674190441410472710,Public Rack - Laramie Ave & Grand Ave,1,1,In Service,41.917002,-87.755972,"(41.917002, -87.755972)",BELMONT_CRAGIN
88,1674190441410472712,Public Rack - Laramie Ave & Warwick Ave,5,5,In Service,41.948812,-87.75713,"(41.948812, -87.75713)",PORTAGE_PARK
89,1571105063705518104,Harlem Ave & Grace St,9,9,In Service,41.9488531,-87.806938,"(41.9488531, -87.806938)",DUNNING
90,1674190445705440012,Public Rack - Lawndale Ave & Diversey Ave,1,1,In Service,41.931702,-87.719254,"(41.931702, -87.719254)",LOGAN_SQUARE
91,1674190445705440014,Public Rack - Lawndale Ave & Polk St,2,2,In Service,41.8707651,-87.7183735,"(41.8707651, -87.7183735)",EAST_GARFIELD_PARK
92,1674190450000407314,Public Rack - Legler Regional Library,2,2,In Service,41.879312,-87.725428,"(41.879312, -87.725428)",WEST_GARFIELD_PARK
93,1674190454295374616,Public Rack - Linder Ave & Belmont Ave,2,2,In Service,41.938743,-87.763298,"(41.938743, -87.763298)",PORTAGE_PARK
94,1674190458590341924,Public Rack - Lorel Ave & Chicago Ave,2,2,In Service,41.89503,-87.759917,"(41.89503, -87.759917)",AUSTIN
95,1674190467180276528,Public Rack - Lowell Ave & Elston Ave,1,1,In Service,41.96614,-87.737,"(41.96614, -87.737)",ALBANY_PARK
96,716,Eberhart Ave & 131st St,15,15,In Service,41.658413151,-87.610710897,"(41.658413151101065, -87.61071089698817)",RIVERDALE
97,1594046405283107528,California & 16th St,9,9,In Service,41.859228,-87.695562,"(41.859228, -87.695562)",NORTH_LAWNDALE
98,1448642175142467180,S Michigan Ave & E 118th St,6,6,In Service,41.679804,-87.620843,"(41.679804, -87.620843)",WEST_PULLMAN
99,1561012870126088744,Central Park Ave & Douglas Blvd,9,9,In Service,41.862355,-87.7157109,"(41.862355, -87.7157109)",NORTH_LAWNDALE
100,1561012887305957948,Lawndale Ave & 16th St,9,9,In Service,41.8591606,-87.7176965,"(41.8591606, -87.7176965)",NORTH_LAWNDALE
101,1436495119852630436,N Damen Ave & W Chicago Ave,6,6,In Service,41.895809,-87.678519,"(41.895809, -87.678519)",WEST_TOWN
102,1677249815239202878,Public Rack - Maryland Ave & 87th ST,1,1,In Service,41.736995,-87.603968,"(41.736995, -87.603968)",CHATHAM
103,1448642183732401786,Woodlawn & 103rd - Olive Harvey Vaccination Site,10,10,In Service,41.707338,-87.59399,"(41.707338, -87.59399)",PULLMAN
104,1575949506683597522,Major Ave & Bloomingdale Ave,9,9,In Service,41.9125923,-87.7686995,"(41.9125923, -87.7686995)",AUSTIN
105,1561012887305957952,Tripp Ave & 15th St,9,9,In Service,41.860777,-87.7313639,"(41.860777, -87.7313639)",NORTH_LAWNDALE
106,1561012895895892552,Spaulding Ave & 16th St,9,9,In Service,41.85892,-87.707963,"(41.85892, -87.707963)",NORTH_LAWNDALE
107,1448642188027369090,Steelworkers Park,6,6,In Service,41.738246,-87.531067,"(41.738246, -87.531067)",SOUTH_CHICAGO
108,1448642183732401788,Maryland Ave & 104th St,10,10,In Service,41.705588,-87.602938,"(41.705588, -87.602938)",PULLMAN
109,1448642188027369086,Indiana Ave & 133rd St,6,6,In Service,41.653564,-87.617054,"(41.653564, -87.617054)",RIVERDALE
110,1677249866778810506,Public Rack - 532 E 43rd St,1,1,In Service,41.816847,-87.613294,"(41.816847, -87.613294)",GRAND_BOULEVARD
111,1622724289952663440,La Villita Park (Albany/30th),9,9,In Service,41.8392528,-87.7020207,"(41.8392528, -87.7020207)",SOUTH_LAWNDALE
112,1677249789469399068,Public Rack - Kostner Ave & Armitage Ave,1,1,In Service,41.917211,-87.736136,"(41.917211, -87.736136)",HERMOSA
113,1448642179437434482,W 103rd St & S Avers Ave,10,10,In Service,41.705846,-87.717074,"(41.705846, -87.717074)",MOUNT_GREENWOOD
114,1436495109493626544,W Washington Blvd & N Peoria St,6,6,In Service,41.883043,-87.649931,"(41.883043, -87.649931)",NEAR_WEST_SIDE
115,1436495105198659246,N Carpenter St & W Lake St,6,6,In Service,41.885586,-87.6531893,"(41.885586, -87.6531893)",NEAR_WEST_SIDE
116,1436495109493626546,N Green St & W Lake St,8,8,In Service,41.885579,-87.648484,"(41.885579, -87.648484)",NEAR_WEST_SIDE
117,1436495115557663136,N Southport Ave & W Newport Ave,8,8,In Service,41.944019,-87.663975,"(41.944019, -87.663975)",LAKE_VIEW
118,1563698701206292480,Lamon Ave & Belmont Ave,9,9,In Service,41.9390108,-87.7492834,"(41.9390108, -87.7492834)",PORTAGE_PARK
119,1561012874421056046,Harding Ave & 26th St,9,9,In Service,41.8444715,-87.7232647,"(41.8444715, -87.7232647)",SOUTH_LAWNDALE
120,1500206163166594382,Ping Tom Park (East),6,6,In Service,41.8579886,-87.6319447,"(41.8579886, -87.6319447)",NEAR_SOUTH_SIDE
121,1561012900190859852,Tripp Ave & 31st St,9,9,In Service,41.836966,-87.730502,"(41.836966, -87.730502)",SOUTH_LAWNDALE
122,1561012895895892548,Kildare Ave & 26th St,9,9,In Service,41.8442315,-87.7321534,"(41.8442315, -87.7321534)",SOUTH_LAWNDALE
123,1563698718386161684,Mason Ave & Belmont Ave,9,9,In Service,41.9383682,-87.7725029,"(41.9383682, -87.7725029)",BELMONT_CRAGIN
124,1521690221159885714,Hampden Ct & Diversey Ave,8,8,In Service,41.9325593,-87.6423847,"(41.9325593, -87.6423847)",LINCOLN_PARK
125,1521686986436309688,Damen Ave & Wabansia Ave,8,8,In Service,41.9122813,-87.6773211,"(41.9122813, -87.6773211)",WEST_TOWN
126,1521679584953491780,Kedzie Ave & 104th St,8,8,In Service,41.7037764,-87.7013952,"(41.7037764, -87.7013952)",MOUNT_GREENWOOD
127,1563698692616359928,Lavergne & Fullerton,9,9,In Service,41.923982,-87.7511643,"(41.923982, -87.7511643)",BELMONT_CRAGIN
128,1677249793764366374,Public Rack - Corliss Ave & 133rd St,5,5,In Service,41.653138,-87.601057,"(41.653138, -87.601057)",RIVERDALE
129,1677249798059333678,Public Rack - Harvard Ave & 119th St,1,1,In Service,41.678227,-87.630775,"(41.678227, -87.630775)",WEST_PULLMAN
130,1677249802354300980,Public Rack - Throop St & 109th Pl,4,4,In Service,41.694944,-87.654377,"(41.694944, -87.654377)",MORGAN_PARK
131,1677249810944235574,Public Rack - Racine Ave & 109th Pl,1,1,In Service,41.694835,-87.653041,"(41.694835, -87.653041)",MORGAN_PARK
132,1677249819534170176,Public Rack - Greenwood Ave & 87th St,1,1,In Service,41.736263,-87.596634,"(41.736263, -87.596634)",BURNSIDE
133,1563698701206292482,Cicero Ave & Grace St,6,6,In Service,41.94973,-87.7469526,"(41.94973, -87.7469526)",PORTAGE_PARK
134,1563698688321392630,Long Ave & Belden Ave,9,9,In Service,41.9227049,-87.760954,"(41.9227049, -87.760954)",BELMONT_CRAGIN
135,1561012874421056044,Pulaski Rd & 21st St,9,9,In Service,41.853452,-87.724541,"(41.853452, -87.724541)",NORTH_LAWNDALE
136,1563698705501259788,Kilpatrick Ave & Parker Ave,9,9,In Service,41.930736,-87.744082,"(41.930736, -87.744082)",BELMONT_CRAGIN
137,1561012891600925250,Homan Ave & Fillmore St,9,9,In Service,41.868114,-87.7109257,"(41.868114, -87.7109257)",NORTH_LAWNDALE
138,1563698688321392628,Long Ave & Belmont Ave,9,9,In Service,41.9383071,-87.761663,"(41.9383071, -87.761663)",BELMONT_CRAGIN
139,1563698675436490728,Meade Ave & Diversey Ave,9,9,In Service,41.9309018,-87.7784686,"(41.9309018, -87.7784686)",BELMONT_CRAGIN
140,1563698679731458030,Parkside Ave & Armitage Ave,9,9,In Service,41.9169054,-87.7671806,"(41.9169054, -87.7671806)",BELMONT_CRAGIN
141,1563698684026425330,Central Ave & Parker Ave,9,9,In Service,41.9301785,-87.7661217,"(41.9301785, -87.7661217)",BELMONT_CRAGIN
142,1561012870126088746,Keeler Ave & Roosevelt Rd,9,9,In Service,41.866402,-87.7300171,"(41.866402, -87.7300171)",NORTH_LAWNDALE
143,1563698718386161692,Mulligan Ave & Wellington Ave,9,9,In Service,41.9347409,-87.7844017,"(41.9347409, -87.7844017)",BELMONT_CRAGIN
144,1575949498093662918,Menard Ave & Division St,9,9,In Service,41.902269,-87.7704807,"(41.902269, -87.7704807)",AUSTIN
145,1571105063705518106,Meade Ave & Addison St,9,9,In Service,41.9459174,-87.7788824,"(41.9459174, -87.7788824)",DUNNING
146,1563698696911327228,Lockwood Ave & Wrightwood Ave,9,9,In Service,41.9278148,-87.7583757,"(41.9278148, -87.7583757)",BELMONT_CRAGIN
147,1563698718386161690,Oak Park & Wellington,9,9,In Service,41.934586,-87.7959613,"(41.934586, -87.7959613)",MONTCLARE
148,1563698692616359930,Lamon Ave & Armitage Ave,9,9,In Service,41.9166701,-87.7494873,"(41.9166701, -87.7494873)",BELMONT_CRAGIN
149,1571105050820616196,Narragansett Ave & School St,9,9,In Service,41.940128,-87.7864806,"(41.940128, -87.7864806)",DUNNING
150,1571105050820616194,Central Ave & Roscoe St,9,9,In Service,41.942258,-87.7669331,"(41.942258, -87.7669331)",PORTAGE_PARK
151,1571105055115583502,Orange & Addison,9,9,In Service,41.9448846,-87.82423,"(41.9448846, -87.82423)",DUNNING
152,1563698679731458032,Fullerton & Monitor,9,9,In Service,41.9237918,-87.7723116,"(41.9237918, -87.7723116)",BELMONT_CRAGIN
153,1622723153590485808,Mayfield & Roosevelt Rd,9,9,In Service,41.8658158,-87.7717805,"(41.8658158, -87.7717805)",AUSTIN
154,655,Hoyne Ave & Balmoral Ave,15,15,In Service,41.979851,-87.681932,"(41.979851, -87.681932)",LINCOLN_SQUARE
155,194,Wabash Ave & Wacker Pl,19,19,In Service,41.886875,-87.62603,"(41.886875, -87.62603)",LOOP
156,1677249793764366368,Public Rack - Kildare Ave & Division Ave,1,1,In Service,41.902405,-87.732699,"(41.902405, -87.732699)",HUMBOLDT_PARK
157,1677249815239202876,Public Rack - Cottage Grove Ave & 89th Pl,1,1,In Service,41.731767,-87.604899,"(41.731767, -87.604899)",CHATHAM
158,1677249819534170178,Public Rack - Drexel Ave & 87th St,1,1,In Service,41.736783,-87.602241,"(41.736783, -87.602241)",CHATHAM
159,1677249823829137482,Public Rack - Laflin St & 79th St,1,1,In Service,41.750326,-87.66168,"(41.750326, -87.66168)",AUBURN_GRESHAM
160,1677249828124104782,Public Rack - Halsted St & 80th St,1,1,In Service,41.748175,-87.644238,"(41.748175, -87.644238)",AUBURN_GRESHAM
161,1677249836714039384,Public Rack - Marquette Ave & 83rd St,1,1,In Service,41.74476,-87.558624,"(41.74476, -87.558624)",SOUTH_CHICAGO
162,1677249853893908602,Public Rack - Prairie Ave & Garfield Blvd S,10,10,In Service,41.794344,-87.619062,"(41.794344, -87.619062)",WASHINGTON_PARK
163,1561012878716023346,Lawndale Ave & 30th St,12,12,In Service,41.8389124,-87.7168955,"(41.8389124, -87.7168955)",SOUTH_LAWNDALE
164,1575949493798695616,Public Rack - Kildare Ave & Division St,9,9,In Service,41.902393,-87.733598,"(41.902393, -87.733598)",HUMBOLDT_PARK
165,1571105055115583496,Long & Irving Park,9,9,In Service,41.953038,-87.7621632,"(41.953038, -87.7621632)",PORTAGE_PARK
166,1563698701206292486,Kilbourn & Roscoe,9,9,In Service,41.9427319,-87.7395332,"(41.9427319, -87.7395332)",IRVING_PARK
167,1575949498093662914,Lavergne Ave & Division St,9,9,In Service,41.902513,-87.750869,"(41.902513, -87.750869)",AUSTIN
168,1571105059410550806,Harlem & Irving Park,9,9,In Service,41.9532568,-87.8071434,"(41.9532568, -87.8071434)",DUNNING
169,1563698675436490730,Narragansett & Wrightwood,9,9,In Service,41.927294,-87.7852027,"(41.927294, -87.7852027)",BELMONT_CRAGIN
170,1563698705501259786,Kenosha & Wellington,9,9,In Service,41.9344421,-87.7337799,"(41.9344421, -87.7337799)",HERMOSA
171,1575949532952438778,Nordica & Medill,9,9,In Service,41.922278,-87.8020357,"(41.922278, -87.8020357)",MONTCLARE
172,1575949506683597526,Narragansett & McLean,9,9,In Service,41.9158931,-87.7851104,"(41.9158931, -87.7851104)",AUSTIN
173,1582242302452717116,Kedzie Ave & 52nd St,9,9,In Service,41.7990641,-87.703446,"(41.7990641, -87.703446)",GAGE_PARK
174,1575949528158434034,Bloomingdale Ave & Harlem Ave,9,9,In Service,41.9120739,-87.8057657,"(41.9120739, -87.8057657)",AUSTIN
175,1575949493798695614,Lamon Ave & Chicago Ave,9,9,In Service,41.8952,-87.748223,"(41.8952, -87.748223)",AUSTIN
176,646,State St & 54th St,11,11,In Service,41.796642,-87.625923,"(41.796642, -87.625923)",WASHINGTON_PARK
177,1575949489503728316,Monticello Ave & Chicago Ave,6,6,In Service,41.8952089,-87.7174329,"(41.8952089, -87.7174329)",HUMBOLDT_PARK
178,1571105068000485406,Narragansett & Irving Park,9,9,In Service,41.952614,-87.7853829,"(41.952614, -87.7853829)",DUNNING
179,1575949515273532130,Kildare Ave & Chicago Ave,9,9,In Service,41.8954359,-87.7335726,"(41.8954359, -87.7335726)",HUMBOLDT_PARK
180,1571105042230683640,Panama Ave & Grace St,9,9,In Service,41.9476665,-87.829258,"(41.9476665, -87.829258)",DUNNING
181,1677249793764366376,Public Rack - Ellis Ave & 132nd Pl,1,1,In Service,41.655139,-87.597597,"(41.655139, -87.597597)",RIVERDALE
182,1575949523863466730,Long Ave & North Ave,9,9,In Service,41.909212,-87.760999,"(41.909212, -87.760999)",AUSTIN
183,1591541115825893018,MTV Hubbard St,6,6,In Service,41.8897772,-87.680351,"(41.8897772, -87.680351)",WEST_TOWN
184,1582242289567815208,Rockwell St & 63rd St,6,6,In Service,41.7787905,-87.6885894,"(41.7787905, -87.6885894)",CHICAGO_LAWN
185,1582242285272847904,Maplewood Ave & 59th St,9,9,In Service,41.7863375,-87.6874351,"(41.7863375, -87.6874351)",CHICAGO_LAWN
186,1582242306747684414,St Louis Ave & Norman Bobbins Ave,9,9,In Service,41.794422,-87.71137,"(41.794422, -87.71137)",GAGE_PARK
187,1582242298157749814,Kedzie Ave & 48th Pl,12,12,In Service,41.8047515,-87.7041145,"(41.8047515, -87.7041145)",BRIGHTON_PARK
188,1582242315337619018,Kedzie Ave & 45th St,6,6,In Service,41.8113904,-87.7040052,"(41.8113904, -87.7040052)",BRIGHTON_PARK
189,1582242280977880604,Richmond St & 59th St,9,9,In Service,41.7865155,-87.6973314,"(41.7865155, -87.6973314)",GAGE_PARK
190,1582242315337619020,California Ave & 36th St,9,9,In Service,41.8282301,-87.6945422,"(41.8282301, -87.6945422)",BRIGHTON_PARK
191,1582242311042651720,Hoyne Ave & 34th St,9,9,In Service,41.8320245,-87.6778387,"(41.8320245, -87.6778387)",MCKINLEY_PARK
192,1582242293862782510,Rockwell St & Archer Ave,9,9,In Service,41.823324,-87.689685,"(41.823324, -87.689685)",BRIGHTON_PARK
193,1582242276682913304,Rockwell St & 57th St,6,6,In Service,41.7903484,-87.6889201,"(41.7903484, -87.6889201)",GAGE_PARK
194,1571105059410550802,Plainfield & Irving Park,9,9,In Service,41.952037,-87.833283,"(41.952037, -87.833283)",DUNNING
195,1561012883010990646,Komensky Ave & 31st St,1,1,In Service,41.836708,-87.725641,"(41.836708, -87.725641)",SOUTH_LAWNDALE
196,1582242319632586318,Sacramento Ave & Pershing Rd,9,9,In Service,41.8222791,-87.6996576,"(41.8222791, -87.6996576)",BRIGHTON_PARK
197,1575949515273532128,Central Park & Augusta Blvd,9,9,In Service,41.8989108,-87.7164901,"(41.8989108, -87.7164901)",HUMBOLDT_PARK
198,677,Stewart Ave & 83rd St,15,15,In Service,41.743717,-87.634088,"(41.743717, -87.634088)",CHATHAM
199,1582242319632586320,Archer Ave & 43rd St,6,6,In Service,41.8154913,-87.7024412,"(41.8154913, -87.7024412)",BRIGHTON_PARK
200,1594041781399920504,Tripp Ave & 65th St,9,9,In Service,41.7749163,-87.728841,"(41.7749163, -87.728841)",WEST_LAWN
201,1594041777104953202,Komensky Ave & 55th St,9,9,In Service,41.793279,-87.724189,"(41.793279, -87.724189)",WEST_ELSDON
202,1582242306747684418,Artesian Ave & 55th St,12,12,In Service,41.7940135,-87.685807,"(41.7940135, -87.685807)",GAGE_PARK
203,1673852326282066544,Public Rack - California Ave & Touhy Ave - NW,1,1,In Service,42.012177,-87.699865,"(42.012177, -87.699865)",WEST_RIDGE
204,1594041777104953206,Hamlin Ave & 62nd Pl,12,12,In Service,41.779953,-87.7178221,"(41.779953, -87.7178221)",WEST_LAWN
205,1582242280977880602,St Louis Ave & 59th St,9,9,In Service,41.785987,-87.7105616,"(41.785987, -87.7105616)",CHICAGO_LAWN
206,1582242323927553620,Kedzie Ave & 57th St,9,9,In Service,41.789944,-87.703233,"(41.789944, -87.703233)",GAGE_PARK
207,1594041781399920506,Springfield Ave & 47th St,9,9,In Service,41.8080713,-87.7212202,"(41.8080713, -87.7212202)",ARCHER_HEIGHTS
208,1594046448232780548,California Ave & 29th St,9,9,In Service,41.840222,-87.694129,"(41.840222, -87.694129)",SOUTH_LAWNDALE
209,1575949510978564830,Central Park Ave & Ohio St,9,9,In Service,41.8918718,-87.7163879,"(41.8918718, -87.7163879)",HUMBOLDT_PARK
210,1575949502388630222,Leamington Ave & Hirsch St,9,9,In Service,41.9058405,-87.7548602,"(41.9058405, -87.7548602)",AUSTIN
211,1593766343243326364,Pulaski Rd & 60th St,9,9,In Service,41.784186,-87.722564,"(41.784186, -87.722564)",WEST_LAWN
212,1582242302452717114,Campbell Ave & 51st St,9,9,In Service,41.8009585,-87.6867556,"(41.8009585, -87.6867556)",GAGE_PARK
213,1582242293862782512,Fairfield Ave & 44th St,9,9,In Service,41.813617,-87.6932272,"(41.813617, -87.6932272)",BRIGHTON_PARK
214,1593766334653391752,Pulaski Rd & 51st St,12,12,In Service,41.800434,-87.7247496,"(41.800434, -87.7247496)",ARCHER_HEIGHTS
215,1594041785694887804,Pulaski & Ann Lurie Pl,9,9,In Service,41.8162761,-87.7246058,"(41.8162761, -87.7246058)",ARCHER_HEIGHTS
216,1593766347538293666,Kostner Ave & 63rd St,9,9,In Service,41.778747,-87.732463,"(41.778747, -87.732463)",WEST_LAWN
217,1593766334653391756,Lavergne Ave & 46th St,9,9,In Service,41.80934,-87.7478312,"(41.80934, -87.7478312)",GARFIELD_RIDGE
218,1594041785694887806,Kenneth Ave & 50th St,6,6,In Service,41.8023156,-87.7344142,"(41.8023156, -87.7344142)",ARCHER_HEIGHTS
219,1593766338948359064,Kildare Ave & 55th St,9,9,In Service,41.793357,-87.730598,"(41.793357, -87.730598)",WEST_ELSDON
220,1593766338948359058,Lawler Ave & 50th St,9,9,In Service,41.802209,-87.7489007,"(41.802209, -87.7489007)",GARFIELD_RIDGE
221,327,Sheffield Ave & Webster Ave,19,19,In Service,41.92154,-87.653818,"(41.92154, -87.653818)",LINCOLN_PARK
222,1594046456830870690,Troy St & Grace St,9,9,In Service,41.950244,-87.706489,"(41.950244, -87.706489)",IRVING_PARK
223,1582242289567815212,Homan Ave & 65th St,9,9,In Service,41.775144,-87.708129,"(41.775144, -87.708129)",CHICAGO_LAWN
224,1594046418168009438,Albany Ave & Belmont Ave,9,9,In Service,41.939638,-87.705263,"(41.939638, -87.705263)",AVONDALE
225,1594046443937813244,Western Ave & Gunnison St,9,9,In Service,41.969659,-87.68955,"(41.969659, -87.68955)",LINCOLN_SQUARE
226,1594046435347878644,Lincoln Ave & Balmoral Ave,9,9,In Service,41.979461,-87.693013,"(41.979461, -87.693013)",LINCOLN_SQUARE
227,1594046409578074830,Milwaukee Ave & Fullerton Ave,9,9,In Service,41.924691,-87.70055,"(41.924691, -87.70055)",LOGAN_SQUARE
228,1594046388103238326,Sacramento Blvd & Polk St,9,9,In Service,41.870959,-87.700259,"(41.870959, -87.700259)",EAST_GARFIELD_PARK
229,1594046362333434512,Damen Ave & 33rd St,9,9,Not In Service,41.834108,-87.67559,"(41.834108, -87.67559)",MCKINLEY_PARK
230,1575949523863466728,Kilpatrick Ave & Grand Ave,9,9,In Service,41.9127779,-87.7436434,"(41.9127779, -87.7436434)",AUSTIN
231,1594046456822715150,Francisco Ave & Hollywood Ave,9,9,In Service,41.984746,-87.701593,"(41.984746, -87.701593)",WEST_RIDGE
232,1594046448262943690,Francisco Ave & Montrose Ave,9,9,In Service,41.9610471,-87.700901,"(41.9610471, -87.700901)",IRVING_PARK
233,1594046461125837998,Lincoln Ave & Peterson Ave,9,9,In Service,41.990247,-87.70858,"(41.990247, -87.70858)",WEST_RIDGE
234,1571105046525650938,Shabbona Park,1,1,In Service,41.944847,-87.799326,"(41.944847, -87.799326)",DUNNING
235,1674190166532565286,Public Rack - Austin Ave & Roscoe St,5,5,In Service,41.942196,-87.776472,"(41.942196, -87.776472)",DUNNING
236,1674190170827532586,Public Rack - Austin Ave & Wrightwood Ave,1,1,In Service,41.927666,-87.775682,"(41.927666, -87.775682)",BELMONT_CRAGIN
237,1674190170827532590,Public Rack - Austin Blvd & North Ave,1,1,In Service,41.909281,-87.775613,"(41.909281, -87.775613)",AUSTIN
238,1674190226662107536,Public Rack - Central Ave & George St,1,1,In Service,41.9326579,-87.7662058,"(41.9326579, -87.7662058)",BELMONT_CRAGIN
239,1674190226662107538,Public Rack - Central Ave & North Ave,1,1,In Service,41.909414,-87.765817,"(41.909414, -87.765817)",AUSTIN
240,1594046439642845942,California Ave & Winona St,6,6,In Service,41.974712,-87.697852,"(41.974712, -87.697852)",LINCOLN_SQUARE
241,1594046400988140228,Rockwell St & Cermak Rd,9,9,In Service,41.851644,-87.690621,"(41.851644, -87.690621)",SOUTH_LAWNDALE
242,1594046456822715152,Richmond St & Lincoln Ave,6,6,In Service,41.988281,-87.703034,"(41.988281, -87.703034)",WEST_RIDGE
243,1594046400988140226,Sacramento Ave & 25th St,9,9,In Service,41.846506,-87.700139,"(41.846506, -87.700139)",SOUTH_LAWNDALE
244,1575949528657471478,Menard Ave & North Ave,9,9,In Service,41.9097167,-87.7702037,"(41.9097167, -87.7702037)",AUSTIN
245,1594046422462976738,Kedzie Ave & George St,9,9,In Service,41.933886,-87.707262,"(41.933886, -87.707262)",AVONDALE
246,1575949519568499430,Augusta Blvd & Laramie Ave,9,9,In Service,41.8986607,-87.7554551,"(41.8986607, -87.7554551)",AUSTIN
247,1594046452527747848,Elston Ave & George St,9,9,In Service,41.934003,-87.690823,"(41.934003, -87.690823)",AVONDALE
248,1594046392398205628,Albany Ave & Douglas Blvd,9,9,In Service,41.86314,-87.703022,"(41.86314, -87.703022)",NORTH_LAWNDALE
249,1606778059648526978,Whipple/Irving Park,9,9,In Service,41.954189,-87.704448,"(41.954189, -87.704448)",IRVING_PARK
250,1594046409578074834,Francisco Ave & Bloomingdale Ave,9,9,In Service,41.913959,-87.699368,"(41.913959, -87.699368)",LOGAN_SQUARE
251,1674190359806093958,Public Rack - Jonathan Y Scammon Public School,1,1,In Service,41.941612,-87.732372,"(41.941612, -87.732372)",IRVING_PARK
252,1594046435347878642,Virginia Ave & Catalpa Ave,9,9,In Service,41.9812456,-87.7048924,"(41.9812456, -87.7048924)",LINCOLN_SQUARE
253,1594046461117682452,Washtenaw Ave & Peterson Ave,9,9,In Service,41.99066,-87.697075,"(41.99066, -87.697075)",WEST_RIDGE
254,1594046396693172926,Albany Ave & 16th St,9,9,In Service,41.85936,-87.70302,"(41.85936, -87.70302)",NORTH_LAWNDALE
255,1593766347538293664,Kildare Ave & 47th St,6,6,In Service,41.807526,-87.7308406,"(41.807526, -87.7308406)",ARCHER_HEIGHTS
256,1594046422462976736,Rockwell St & Fletcher St,9,9,In Service,41.938689,-87.692972,"(41.938689, -87.692972)",AVONDALE
257,1582242298157749812,Francisco Ave & 47th St,9,9,In Service,41.8084245,-87.696619,"(41.8084245, -87.696619)",BRIGHTON_PARK
258,1674190338331257438,Public Rack - Harvey Ave & North Ave,3,3,In Service,41.909264,-87.782265,"(41.909264, -87.782265)",AUSTIN
259,1594046418168009436,Elston Ave & Henderson St,9,9,In Service,41.941499,-87.701051,"(41.941499, -87.701051)",AVONDALE
260,1594046465420805300,Western Ave & Ardmore Ave,9,9,In Service,41.9867636,-87.6898796,"(41.9867636, -87.6898796)",WEST_RIDGE
261,1594046379513303716,Sacramento Blvd & Fulton Ave,9,9,In Service,41.886528,-87.70167,"(41.886528, -87.70167)",EAST_GARFIELD_PARK
262,1594046383808271020,Washtenaw Ave & Madison St,9,9,In Service,41.881286,-87.69396,"(41.881286, -87.69396)",EAST_GARFIELD_PARK
263,1594046388103238324,Mozart St & Jackson Blvd,6,6,In Service,41.877507,-87.6974,"(41.877507, -87.6974)",EAST_GARFIELD_PARK
264,1594046439642845944,N Shore Channel Trail & Argyle St,9,9,In Service,41.972177,-87.702749,"(41.972177, -87.702749)",LINCOLN_SQUARE
265,1594046379513303720,Western Ave & Lake St,6,6,In Service,41.884606,-87.685853,"(41.884606, -87.685853)",NEAR_WEST_SIDE
266,1594046405283107532,Whipple St & Roosevelt Rd,9,9,In Service,41.866554,-87.701329,"(41.866554, -87.701329)",NORTH_LAWNDALE
267,1594046413873042136,Sacramento Blvd & Addison St,9,9,In Service,41.94609,-87.702988,"(41.94609, -87.702988)",AVONDALE
268,1594046392398205624,Washtenaw Ave & Polk St,9,9,In Service,41.8711028,-87.693683,"(41.8711028, -87.693683)",EAST_GARFIELD_PARK
269,1674190441410472714,Public Rack - Latrobe Ave & Lake St,1,1,In Service,41.887083,-87.756181,"(41.887083, -87.756181)",AUSTIN
270,1674190458590341928,Public Rack - Lotus Ave & Harrison St,1,1,In Service,41.87298,-87.763267,"(41.87298, -87.763267)",AUSTIN
271,1674190480065178440,Public Rack - McVicker Ave & Grand Ave,1,1,In Service,41.921251,-87.776662,"(41.921251, -87.776662)",BELMONT_CRAGIN
272,1674190488655113044,Public Rack - Menard Ave & Belmont Ave,1,1,In Service,41.9384526,-87.7711009,"(41.9384526, -87.7711009)",BELMONT_CRAGIN
273,1674190488655113046,Public Rack - Menard Ave & Dakin St - midblock,2,2,In Service,41.951732,-87.772005,"(41.951732, -87.772005)",PORTAGE_PARK
274,1674190488655113048,Public Rack - Menard Ave & Grand Ave,1,1,In Service,41.9197904,-87.7709818,"(41.9197904, -87.7709818)",BELMONT_CRAGIN
275,1674190492950080348,Public Rack - Michele Clark Magnet High School,2,2,In Service,41.872849,-87.753432,"(41.872849, -87.753432)",AUSTIN
276,1674190527309818772,Public Rack - Narragansett Ave & Fullerton Ave,2,2,In Service,41.92378,-87.7843998,"(41.92378, -87.7843998)",BELMONT_CRAGIN
277,1674190604619230230,Public Rack - Sacramento Ave & Devon Ave,1,1,In Service,41.997575,-87.704649,"(41.997575, -87.704649)",WEST_RIDGE
278,98,LaSalle St & Washington St,15,15,In Service,41.882664,-87.63253,"(41.882664, -87.63253)",LOOP
279,1674190145057728766,Public Rack - Abbott Park,2,2,In Service,41.721696,-87.622278,"(41.721696, -87.622278)",ROSELAND
280,1674190265316813264,Public Rack - Cottage Grove & 86th St,1,1,In Service,41.738409,-87.604822,"(41.738409, -87.604822)",CHATHAM
281,1674190604619230232,Public Rack - Sacramento Ave & Greenleaf Ave,6,6,In Service,42.009458,-87.704666,"(42.009458, -87.704666)",WEST_RIDGE
282,1674190402755766970,Public Rack - Keeler Ave & 55th St,1,1,In Service,41.79304,-87.728214,"(41.79304, -87.728214)",WEST_ELSDON
283,1674190419935636184,Public Rack - King Dr & 83rd St,1,1,In Service,41.743616,-87.61457,"(41.743616, -87.61457)",CHATHAM
284,1674190604619230234,Public Rack - Sacramento Blvd & Division St,3,3,In Service,41.907928,-87.701479,"(41.907928, -87.701479)",WEST_TOWN
285,1674190617504132142,Public Rack - Spencer Elementary Technology Academy,2,2,In Service,41.884655,-87.750498,"(41.884655, -87.750498)",AUSTIN
286,1674190428525570794,Public Rack - Lafayette Ave & 87th St SW,1,1,In Service,41.736223,-87.626737,"(41.736223, -87.626737)",CHATHAM
287,1674190428525570800,Public Rack - Lake Park Ave & 44th St,1,1,In Service,41.814697,-87.598006,"(41.814697, -87.598006)",KENWOOD
288,1674190432820538100,Public Rack - Lake Park Ave & 47th St,1,1,In Service,41.809797,-87.591824,"(41.809797, -87.591824)",KENWOOD
289,1674190437115505406,Public Rack - Langley Ave & 79th St,2,2,In Service,41.751103,-87.607432,"(41.751103, -87.607432)",CHATHAM
290,1674190450000407312,Public Rack - Lawrence Ave & 103rd St,1,1,In Service,41.707665,-87.608695,"(41.707665, -87.608695)",ROSELAND
291,1674190454295374620,Public Rack - Longwood Dr & 95th St,1,1,In Service,41.720921,-87.669585,"(41.720921, -87.669585)",BEVERLY
292,1594046431052911340,Campbell Ave & Irving Park Rd,9,9,In Service,41.953634,-87.690782,"(41.953634, -87.690782)",NORTH_CENTER
293,1594046413873042132,Western Ave & Grace St,9,9,In Service,41.95039,-87.688234,"(41.95039, -87.688234)",NORTH_CENTER
294,1674190454295374622,Public Rack - Loomis Blvd & 83rd St,1,1,In Service,41.743271,-87.658769,"(41.743271, -87.658769)",AUBURN_GRESHAM
295,1674190458590341922,Public Rack - Loomis St & 87th St,1,1,In Service,41.735465,-87.657585,"(41.735465, -87.657585)",AUBURN_GRESHAM
296,1561012878716023344,Kildare & Cermak,9,9,In Service,41.851414,-87.73215,"(41.851414, -87.73215)",NORTH_LAWNDALE
297,1594046448232780546,Troy Ave & 27th St,9,9,In Service,41.84265,-87.70401,"(41.84265, -87.70401)",SOUTH_LAWNDALE
298,1674190162237597978,Public Rack - Ashland Ave & 46th St,1,1,In Service,41.810537,-87.665404,"(41.810537, -87.665404)",NEW_CITY
299,1674190175122499898,Public Rack - Avenue J & 102nd St,2,2,In Service,41.709832,-87.534238,"(41.709832, -87.534238)",EAST_SIDE
300,1674190200892303716,Public Rack - Brandon Ave & 91st St,1,1,In Service,41.730218,-87.546758,"(41.730218, -87.546758)",SOUTH_CHICAGO
301,1674190218072172924,Public Rack - Calumet Ave & 103rd St,1,1,In Service,41.707061,-87.615309,"(41.707061, -87.615309)",ROSELAND
302,1674190218072172926,Public Rack - Calumet Ave & 133rd St,2,2,In Service,41.653975,-87.614225,"(41.653975, -87.614225)",RIVERDALE
303,1674190222367140232,Public Rack - Central Ave & Adams St,8,8,In Service,41.878264,-87.764886,"(41.878264, -87.764886)",AUSTIN
304,1674190261021845960,Public Rack - Commercial Ave & 89th St,1,1,In Service,41.733543,-87.551152,"(41.733543, -87.551152)",SOUTH_CHICAGO
305,1674190269611780562,Public Rack - Cottage Grove Ave & 111th St,1,1,In Service,41.692645,-87.609758,"(41.692645, -87.609758)",PULLMAN
306,1674190273906747872,Public Rack - Cottage Grove Ave & 92nd St,1,1,In Service,41.727319,-87.604787,"(41.727319, -87.604787)",CHATHAM
307,1674190175122499894,Public Rack - Austin Branch Chicago Public Library,2,2,In Service,41.889161,-87.765738,"(41.889161, -87.765738)",AUSTIN
308,1674190183712434502,Public Rack - Avenue O & 118th St,1,1,In Service,41.681136,-87.54029,"(41.681136, -87.54029)",HEGEWISCH
309,1674190192302369104,Public Rack - Back of the Yards Park,1,1,In Service,41.804381,-87.657742,"(41.804381, -87.657742)",NEW_CITY
310,1674190222367140228,Public Rack - Canty Elementary School,2,2,In Service,41.947562,-87.829311,"(41.947562, -87.829311)",DUNNING
311,1674190239547009456,Public Rack - Christiana Ave & Archer Ave,1,1,In Service,41.81175,-87.707577,"(41.81175, -87.707577)",BRIGHTON_PARK
312,1674190261021845962,Public Rack - Corliss Ave & 103rd St,1,1,In Service,41.707622,-87.60355,"(41.707622, -87.60355)",PULLMAN
313,1674190273906747868,Public Rack - Cottage Grove Ave & 91st St,1,1,In Service,41.72951,-87.603739,"(41.72951, -87.603739)",CHATHAM
314,1674190295381584396,Public Rack - Ewing Ave & 105th St,1,1,In Service,41.704373,-87.53544,"(41.704373, -87.53544)",EAST_SIDE
315,1674190166532565276,Public Rack - Ashland Ave & 71st St,2,2,In Service,41.76577,-87.66433,"(41.76577, -87.66433)",WEST_ENGLEWOOD
316,1674190308266486300,Public Rack - Forrestville Ave & 47th St,1,1,In Service,41.809319,-87.612921,"(41.809319, -87.612921)",GRAND_BOULEVARD
317,1674190329741322836,Public Rack - Harding Ave & 47th St,1,1,In Service,41.807749,-87.722579,"(41.807749, -87.722579)",ARCHER_HEIGHTS
318,1674190334036290140,Public Rack - Harvard Ave & 103rd St,1,1,In Service,41.706863,-87.631674,"(41.706863, -87.631674)",ROSELAND
319,1674190368396028570,Public Rack - Kedzie & 103rd St - W,1,1,In Service,41.705247,-87.701424,"(41.705247, -87.701424)",MOUNT_GREENWOOD
320,1674190432820538108,Public Rack - Langley Ave & 105th Pl,2,2,In Service,41.702472,-87.606477,"(41.702472, -87.606477)",PULLMAN
321,1674190145057728764,Public Rack - 83rd St (Avalon Park) Metra,1,1,In Service,41.743916,-87.598786,"(41.743916, -87.598786)",CHATHAM
322,1674190157942630676,Public Rack - Archer Park,2,2,In Service,41.803822,-87.73551,"(41.803822, -87.73551)",ARCHER_HEIGHTS
323,1674190183712434504,Public Rack - Avers Ave & Archer Ave,2,2,In Service,41.804487,-87.719584,"(41.804487, -87.719584)",ARCHER_HEIGHTS
324,1674190196597336406,Public Rack - Baltimore Ave & 134th St,1,1,In Service,41.651419,-87.547321,"(41.651419, -87.547321)",HEGEWISCH
325,1674190200892303712,Public Rack - Bishop St & 46th St,1,1,In Service,41.80994,-87.661522,"(41.80994, -87.661522)",NEW_CITY
326,1674190200892303714,Public Rack - Bradley Park,1,1,In Service,41.718353,-87.564459,"(41.718353, -87.564459)",SOUTH_DEERING
327,1674190265316813260,Public Rack - Cottage Grove & 84th St,1,1,In Service,41.741957,-87.604839,"(41.741957, -87.604839)",CHATHAM
328,1674190291086617088,Public Rack - Emerald Ave & 45th St,1,1,In Service,41.812381,-87.644633,"(41.812381, -87.644633)",NEW_CITY
329,1674190303971518998,Public Rack - Ewing Ave & 99th St,2,2,In Service,41.7159614,-87.5351111,"(41.7159614, -87.5351111)",EAST_SIDE
330,1674190308266486308,Public Rack - Greenwood Ave & Lake Park Ave,1,1,In Service,41.817372,-87.599576,"(41.817372, -87.599576)",OAKLAND
331,1674190342626224740,Public Rack - Homan Ave & 111th St,1,1,In Service,41.691578,-87.705842,"(41.691578, -87.705842)",MOUNT_GREENWOOD
332,1674190368396028568,Public Rack - Kedzie & 103rd St - East,1,1,In Service,41.705444,-87.701232,"(41.705444, -87.701232)",MOUNT_GREENWOOD
333,1674190407050734270,Public Rack - Kenneth Ave & 63rd St W,10,10,In Service,41.778404,-87.733951,"(41.778404, -87.733951)",WEST_LAWN
334,1674190149352696066,Public Rack - Ada St & 95th St,1,1,In Service,41.72158,-87.65612,"(41.72158, -87.65612)",WASHINGTON_HEIGHTS
335,1674190179417467202,Public Rack - Avenue M & 132nd St,2,2,In Service,41.655692,-87.537595,"(41.655692, -87.537595)",HEGEWISCH
336,1674190372690995868,Public Rack - Kedzie Ave & 54th St - SE,1,1,In Service,41.794326,-87.703471,"(41.794326, -87.703471)",GAGE_PARK
337,1674190428525570798,Public Rack - Lafayette Ave & 95th St,10,10,In Service,41.721787,-87.624939,"(41.721787, -87.624939)",ROSELAND
338,1674190192302369106,Public Rack - Baltimore Ave & 132nd St,1,1,In Service,41.655201,-87.546942,"(41.655201, -87.546942)",HEGEWISCH
339,1674190205187271018,Public Rack - Buffalo Ave & 89th St,3,3,In Service,41.73341,-87.54454,"(41.73341, -87.54454)",SOUTH_CHICAGO
340,1674190226662107534,Public Rack - Central Ave & Corcoran Pl,1,1,In Service,41.887342,-87.765041,"(41.887342, -87.765041)",AUSTIN
341,1674190269611780570,Public Rack - Cottage Grove Ave & 87th St,1,1,In Service,41.736448,-87.60616,"(41.736448, -87.60616)",CHATHAM
342,1674190295381584392,Public Rack - Ewing Ave & 101st St,1,1,In Service,41.7117328,-87.5350591,"(41.7117328, -87.5350591)",EAST_SIDE
343,1674190299676551700,Public Rack - Ewing Ave & 96th St N,1,1,In Service,41.7215552,-87.5356904,"(41.7215552, -87.5356904)",EAST_SIDE
344,1674190338331257442,Public Rack - Hiawatha Park,1,1,In Service,41.944068,-87.827302,"(41.944068, -87.827302)",DUNNING
345,1674190346921192044,Public Rack - Houston Ave & 131st St,10,10,In Service,41.656961,-87.548521,"(41.656961, -87.548521)",HEGEWISCH
346,1674190351216159354,Public Rack - Indiana Ave & 111th St,9,9,In Service,41.692535,-87.617711,"(41.692535, -87.617711)",ROSELAND
347,1674190372690995870,Public Rack - Kedzie Ave & 54th St - SW,1,1,In Service,41.795222,-87.703719,"(41.795222, -87.703719)",GAGE_PARK
348,1674190411345701582,Public Rack - Kildare Ave & Washignton Blvd,1,1,In Service,41.881838,-87.733661,"(41.881838, -87.733661)",WEST_GARFIELD_PARK
349,1674190419935636190,Public Rack - Komensky Ave & 59th St,1,1,In Service,41.786049,-87.723645,"(41.786049, -87.723645)",WEST_ELSDON
350,1674190205187271016,Public Rack - Buffalo Ave & 133rd St,2,2,In Service,41.65428,-87.543539,"(41.65428, -87.543539)",HEGEWISCH
351,1674190578849426418,Public Rack - Pulaski Rd & 40th St,2,2,In Service,41.81864,-87.72428,"(41.81864, -87.72428)",ARCHER_HEIGHTS
352,1674190149352696064,Public Rack - Ada St & 117th St,1,1,In Service,41.681128,-87.655064,"(41.681128, -87.655064)",WEST_PULLMAN
353,1674190162237597974,Public Rack - Ashland Ave & 45th St,1,1,In Service,41.811958,-87.664862,"(41.811958, -87.664862)",NEW_CITY
354,1674190179417467196,Public Rack - Avenue J & 106th St,1,1,In Service,41.70261,-87.533531,"(41.70261, -87.533531)",EAST_SIDE
355,1674190179417467200,Public Rack - Avenue J & 112th St,2,2,In Service,41.691844,-87.534181,"(41.691844, -87.534181)",EAST_SIDE
356,1674190209482238318,Public Rack - Burnside Academy,2,2,In Service,41.728525,-87.608231,"(41.728525, -87.608231)",CHATHAM
357,1674190213777205626,Public Rack - California Ave & Pershing Rd,10,10,In Service,41.822632,-87.695024,"(41.822632, -87.695024)",BRIGHTON_PARK
358,1674190218072172928,Public Rack - Calumet Ave & 51st St,1,1,In Service,41.802221,-87.618457,"(41.802221, -87.618457)",GRAND_BOULEVARD
359,1674190265316813262,Public Rack - Cottage Grove & 85th St,1,1,In Service,41.740086,-87.604743,"(41.740086, -87.604743)",CHATHAM
360,1674190166532565282,Public Rack - Ashland Ave & 76th St,2,2,In Service,41.75596,-87.66391,"(41.75596, -87.66391)",AUBURN_GRESHAM
361,1674190282496682478,Public Rack - Eberhart Ave & 131st St,2,2,In Service,41.65759,-87.610713,"(41.65759, -87.610713)",RIVERDALE
362,1674190381280930478,Public Rack - Kedzie Ave & Archer Ave,2,2,In Service,41.81359,-87.70478,"(41.81359, -87.70478)",BRIGHTON_PARK
363,1674190278201715172,Public Rack - Damen Ave & 47th St,1,1,In Service,41.808884,-87.67513,"(41.808884, -87.67513)",NEW_CITY
364,1674190303971519000,Public Rack - Ewing Ave & Indianapolis Ave,1,1,In Service,41.712353,-87.53545,"(41.712353, -87.53545)",EAST_SIDE
365,1674190312561453608,Public Rack - Halsted St & 102nd St,1,1,In Service,41.70794,-87.643177,"(41.70794, -87.643177)",WASHINGTON_HEIGHTS
366,1674190346921192048,Public Rack - Houston Ave & 91st St,1,1,In Service,41.729964,-87.549645,"(41.729964, -87.549645)",SOUTH_CHICAGO
367,1674190355511126658,Public Rack - Jeffery Blvd & 83rd St,1,1,In Service,41.744345,-87.575043,"(41.744345, -87.575043)",SOUTH_CHICAGO
368,1674190359806093962,Public Rack - Justine St & 87th St,1,1,In Service,41.736019,-87.66243,"(41.736019, -87.66243)",AUBURN_GRESHAM
369,1674190398460799668,Public Rack - Kedzie Ave & Pershing Rd,1,1,In Service,41.822897,-87.704154,"(41.822897, -87.704154)",BRIGHTON_PARK
370,1674190157942630668,Public Rack - Albany Ave & 111th St - NW,1,1,In Service,41.691669,-87.698507,"(41.691669, -87.698507)",MOUNT_GREENWOOD
371,1674190162237597976,Public Rack - Ashland Ave & 45th St  S,1,1,In Service,41.811169,-87.66474,"(41.811169, -87.66474)",NEW_CITY
372,1674190192302369108,Public Rack - Baltimore Ave & 133rd St,2,2,In Service,41.653444,-87.547004,"(41.653444, -87.547004)",HEGEWISCH
373,1674190205187271014,Public Rack - Brighton Park Branch Chicago Library,2,2,In Service,41.815242,-87.702651,"(41.815242, -87.702651)",BRIGHTON_PARK
374,1674190222367140236,Public Rack - Central Ave & Congress Pkwy,2,2,In Service,41.87369,-87.764746,"(41.87369, -87.764746)",AUSTIN
375,1674190291086617084,Public Rack - Ellis Ave & Doty Ave,2,2,In Service,41.659119,-87.597052,"(41.659119, -87.597052)",RIVERDALE
376,1674190299676551698,Public Rack - Ewing Ave & 112th St,1,1,In Service,41.691979,-87.534912,"(41.691979, -87.534912)",EAST_SIDE
377,1674190321151388222,Public Rack - Halsted St & 95th St - SW,1,1,In Service,41.720964,-87.643447,"(41.720964, -87.643447)",WASHINGTON_HEIGHTS
378,1674190334036290138,Public Rack - Harriet E Sayre Public School,3,3,In Service,41.913547,-87.79876,"(41.913547, -87.79876)",AUSTIN
379,1674190372690995872,Public Rack - Kedzie Ave & 58th St,2,2,In Service,41.788263,-87.703576,"(41.788263, -87.703576)",GAGE_PARK
380,1674190424230603494,Public Rack - Lafayette Ave & 119th St,1,1,In Service,41.677853,-87.623447,"(41.677853, -87.623447)",WEST_PULLMAN
381,1674190480065178438,Public Rack - McCormick Blvd & Devon Ave,3,3,In Service,41.996194,-87.712,"(41.996194, -87.712)",NORTH_PARK
382,1674190501540014956,Public Rack - Milwaukee Ave & Addison St,3,3,In Service,41.94651,-87.735721,"(41.94651, -87.735721)",IRVING_PARK
383,1674190501540014960,Public Rack - Milwaukee Ave & Diversey Ave,2,2,In Service,41.93123,-87.711501,"(41.93123, -87.711501)",LOGAN_SQUARE
384,1674190230957074842,Public Rack - Champlain Ave & 134th St,2,2,In Service,41.657379,-87.606444,"(41.657379, -87.606444)",RIVERDALE
385,1674190505834982258,Public Rack - Milwaukee Ave & Haussen Ct,2,2,In Service,41.937752,-87.721623,"(41.937752, -87.721623)",AVONDALE
386,1674190505834982260,Public Rack - Milwaukee Ave & School St,1,1,In Service,41.940648,-87.726087,"(41.940648, -87.726087)",AVONDALE
387,1674190505834982262,Public Rack - Monticello Ave & Belmont Ave,2,2,In Service,41.939472,-87.718423,"(41.939472, -87.718423)",AVONDALE
388,1674190510129949570,Public Rack - Mozart Elementary School,6,6,In Service,41.921325,-87.722375,"(41.921325, -87.722375)",LOGAN_SQUARE
389,1674190557374589902,Public Rack - Penn Elementary School / KIPP Ascend Middle School,4,4,In Service,41.8586742,-87.7223835,"(41.8586742, -87.7223835)",NORTH_LAWNDALE
390,1674190574554459120,Public Rack - Pulaski Rd & 15th St,1,1,In Service,41.8603966,-87.7250977,"(41.8603966, -87.7250977)",NORTH_LAWNDALE
391,1674190587439361020,Public Rack - Pulaski Rd & Armitage Ave,2,2,In Service,41.91702,-87.727096,"(41.91702, -87.727096)",HERMOSA
392,1674190587439361022,Public Rack - Pulaski Rd & Fullerton Ave,4,4,In Service,41.924618,-87.727398,"(41.924618, -87.727398)",LOGAN_SQUARE
393,1674190587439361024,Public Rack - Pulaski Rd & Roosevelt Rd,1,1,In Service,41.866103,-87.724463,"(41.866103, -87.724463)",NORTH_LAWNDALE
394,1674190600324262928,Public Rack - Roswell B. Mason Elementary School,4,4,In Service,41.8560219,-87.7298436,"(41.8560219, -87.7298436)",NORTH_LAWNDALE
395,1674190600324262932,Public Rack - S Kostner Ave & W 18th Pl,1,1,In Service,41.8551905,-87.7345547,"(41.8551905, -87.7345547)",NORTH_LAWNDALE
396,1674190613209164838,Public Rack - Spaulding Ave & Bryn Mawr Ave,2,2,In Service,41.982964,-87.711441,"(41.982964, -87.711441)",NORTH_PARK
397,1674190617504132138,Public Rack - Spaulding Ave & Evergreen Ave,2,2,In Service,41.905317,-87.709521,"(41.905317, -87.709521)",HUMBOLDT_PARK
398,1674190617504132140,Public Rack - Spaulding Ave & North Ave,4,4,In Service,41.910138,-87.709553,"(41.910138, -87.709553)",HUMBOLDT_PARK
399,1674190621799099444,Public Rack - St Louis Ave & Berteau Ave,1,1,In Service,41.958373,-87.715685,"(41.958373, -87.715685)",IRVING_PARK
400,1674190673338707100,Public Rack - Western Ave & Jarvis Ave,1,1,In Service,42.016398,-87.690376,"(42.016398, -87.690376)",WEST_RIDGE
401,1674190677633674404,Public Rack - Whipple St & 26th St,2,2,In Service,41.843636,-87.701931,"(41.843636, -87.701931)",SOUTH_LAWNDALE
402,1674190694813543600,Public Rack - Zapata Academy,3,3,In Service,41.841655,-87.734366,"(41.841655, -87.734366)",SOUTH_LAWNDALE
403,1677249772289529864,Public Rack - Sawyer Ave & Bryn Mawr Ave - SE,1,1,In Service,41.9830174,-87.7096999,"(41.9830174, -87.7096999)",NORTH_PARK
404,1677249772289529866,Public Rack - Christiana Ave & Bryn Mawr Ave,1,1,In Service,41.982838,-87.71233,"(41.982838, -87.71233)",NORTH_PARK
405,1677249772289529870,Public Rack - Spaulding Ave & Foster Ave,1,1,In Service,41.975921,-87.710415,"(41.975921, -87.710415)",NORTH_PARK
406,1677249776584497168,Public Rack - Christiana Ave & Lawrence Ave,2,2,In Service,41.968547,-87.712582,"(41.968547, -87.712582)",ALBANY_PARK
407,1677249780879464466,Public Rack - Sawyer Ave & Lawrence Ave,1,1,In Service,41.9683,-87.709435,"(41.9683, -87.709435)",ALBANY_PARK
408,1677249780879464468,Public Rack - Milwaukee Ave & Waveland Ave,1,1,In Service,41.947472,-87.737875,"(41.947472, -87.737875)",IRVING_PARK
409,1677249785174431766,Public Rack - Karlov Ave & Milwaukee Ave,1,1,In Service,41.942702,-87.730011,"(41.942702, -87.730011)",IRVING_PARK
410,1677249785174431768,Public Rack - Kedvale Ave & Addison St,2,2,In Service,41.947174,-87.730837,"(41.947174, -87.730837)",IRVING_PARK
411,35,Streeter Dr & Grand Ave,47,47,In Service,41.892278,-87.612043,"(41.892278, -87.612043)",NEAR_NORTH_SIDE
412,1674190484360145738,Public Rack - Melvina Ave & Belmont Ave,1,1,In Service,41.9384207,-87.7813896,"(41.9384207, -87.7813896)",DUNNING
413,1695776976641823202,Public Rack - Ewing Ave & 107th St,1,1,In Service,41.700378,-87.535276,"(41.700378, -87.535276)",EAST_SIDE
414,289,Wells St & Concord Ln,19,19,In Service,41.912133,-87.634656,"(41.912133, -87.634656)",LINCOLN_PARK
415,1695776978415481326,Public Rack - Ave L & 105th St,1,1,In Service,41.703542,-87.536634,"(41.703542, -87.536634)",EAST_SIDE
416,1695776985249749774,Public Rack - Ewing Ave & 95th St,1,1,In Service,41.722376,-87.5358299,"(41.722376, -87.5358299)",EAST_SIDE
417,1683527967940622360,Public Rack - Vincennes Ave & 91st St,1,1,In Service,41.728122,-87.648524,"(41.728122, -87.648524)",WASHINGTON_HEIGHTS
418,684,Prospect Sq & 91st St,15,15,In Service,41.7282338,-87.6675239,"(41.7282338, -87.6675239)",BEVERLY
419,1594046426757944042,Western Ave & Berteau Ave,6,6,In Service,41.95774,-87.688273,"(41.95774, -87.688273)",NORTH_CENTER
420,1683527963645655060,Public Rack - State ST & 42nd St,1,1,In Service,41.819067,-87.626417,"(41.819067, -87.626417)",GRAND_BOULEVARD
421,1674190282496682480,Public Rack - Eggleston Ave & 114th St,3,3,In Service,41.686642,-87.633547,"(41.686642, -87.633547)",ROSELAND
422,555,Ashland Ave & 50th St,11,11,In Service,41.803023,-87.664699,"(41.803023, -87.664699)",NEW_CITY
423,1695776985249749776,Public Rack - Ashland Ave & 91st St,1,1,In Service,41.728271,-87.662673,"(41.728271, -87.662673)",WASHINGTON_HEIGHTS
424,1683527931525155816,Public Rack - Crandon Ave & 80th St,1,1,In Service,41.749519,-87.568831,"(41.749519, -87.568831)",SOUTH_CHICAGO
425,524,Austin Blvd & Chicago Ave,7,7,In Service,41.894887,-87.774704,"(41.894887, -87.774704)",AUSTIN
426,1683527937875852272,Public Rack - Jeffery Blvd & 81st St,1,1,In Service,41.74927751,-87.57585394,"(41.74927751, -87.57585394)",SOUTH_CHICAGO
427,1674190462885309226,Public Rack - Lowe Ave & 94th St,2,2,In Service,41.724234,-87.639453,"(41.724234, -87.639453)",WASHINGTON_HEIGHTS
428,1683527937875852268,Public Rack - Houston Ave & 130th St,1,1,In Service,41.658962,-87.548528,"(41.658962, -87.548528)",HEGEWISCH
429,1683527944410057716,Public Rack - King Dr & 115th St,1,1,In Service,41.685239,-87.613418,"(41.685239, -87.613418)",WEST_PULLMAN
430,1683527955055720452,Public Rack - Michigan Ave & 107th St,1,1,In Service,41.699671,-87.621034,"(41.699671, -87.621034)",ROSELAND
431,62,McCormick Place,27,27,In Service,41.851375173,-87.618834649,"(41.8513751729, -87.6188346489)",NEAR_SOUTH_SIDE
432,1695776948350710232,Public Rack - Lamon Ave & Erie St,3,3,In Service,41.892114,-87.746676,"(41.892114, -87.746676)",AUSTIN
433,1695776956940644828,Public Rack - Halsted St & 113th St,1,1,In Service,41.68851,-87.642512,"(41.68851, -87.642512)",MORGAN_PARK
434,1695776957520678960,Public Rack - Wallace St & 119th St,1,1,In Service,41.677629,-87.637554,"(41.677629, -87.637554)",WEST_PULLMAN
435,1674190462885309228,Public Rack - Lowe Ave & 98th St,2,2,In Service,41.715887,-87.639228,"(41.715887, -87.639228)",WASHINGTON_HEIGHTS
436,1674190467180276530,Public Rack - Mackinaw Ave & 106th St,1,1,In Service,41.702557,-87.542728,"(41.702557, -87.542728)",EAST_SIDE
437,1674190467180276532,Public Rack - Mackinaw Ave & 108th St,1,1,In Service,41.699008,-87.542833,"(41.699008, -87.542833)",EAST_SIDE
438,1448642179437434486,Martin Luther King Dr & 111th St,6,6,In Service,41.692638956,-87.613673865,"(41.69263895647179, -87.61367386484747)",ROSELAND
439,1695776985071215288,Public Rack - Ewing Ave & 102nd St,1,1,In Service,41.709948,-87.535365,"(41.709948, -87.535365)",EAST_SIDE
440,1695780074116615022,Public Rack - Richmond St & Thorndale Ave,10,10,In Service,41.988931,-87.702785,"(41.988931, -87.702785)",WEST_RIDGE
441,1674190467180276534,Public Rack - Mackinaw Ave & 85th St,1,1,In Service,41.741897,-87.543162,"(41.741897, -87.543162)",SOUTH_CHICAGO
442,1683527959350687752,Public Rack - Saginaw Ave & 93rd St,1,1,In Service,41.726199,-87.559252,"(41.726199, -87.559252)",CALUMET_HEIGHTS
443,1695776980954782472,Public Rack - Ewing Ave & 106th St,2,2,In Service,41.7024928,-87.5351313,"(41.7024928, -87.5351313)",EAST_SIDE
444,1683527963645655062,Public Rack - Stony Island & 87th St,1,1,In Service,41.7367,-87.585815,"(41.7367, -87.585815)",CALUMET_HEIGHTS
445,1695776989544717076,Public Rack - Langley Ave & 87th St,1,1,In Service,41.735828,-87.606981,"(41.735828, -87.606981)",CHATHAM
446,1695780083082689008,Public Rack - Kostner Ave & Wrightwood Ave,9,9,In Service,41.92786,-87.735756,"(41.92786, -87.735756)",HERMOSA
447,1695776990330095648,Public Rack - Clyde Ave & 87th St,3,3,In Service,41.73715,-87.57319,"(41.73715, -87.57319)",AVALON_PARK
448,1683527927230188514,Public Rack - 53rd St & Indiana Ave,1,1,In Service,41.798015,-87.620745,"(41.798015, -87.620745)",WASHINGTON_PARK
449,1683527942170819574,Public Rack - King Dr & Oakwood Blvd,1,1,In Service,41.822827,-87.616486,"(41.822827, -87.616486)",GRAND_BOULEVARD
450,1683527950760754170,Public Rack - Langley Ave & Oakwood Blvd,2,2,In Service,41.822839,-87.609525,"(41.822839, -87.609525)",GRAND_BOULEVARD
451,1695777015314520896,Public Rack - Fullerton Ave & Narragansett Ave,1,1,In Service,41.923739,-87.785835,"(41.923739, -87.785835)",BELMONT_CRAGIN
452,1695777017650221152,Public Rack - Pulaski Rd & Lake St,1,1,In Service,41.885577,-87.72606,"(41.885577, -87.72606)",WEST_GARFIELD_PARK
453,1683527957294958598,Public Rack - Paxton Ave & 79th St,1,1,In Service,41.75167773,-87.57045748,"(41.75167773, -87.57045748)",SOUTH_SHORE
454,134,Peoria St & Jackson Blvd,19,19,In Service,41.877641596,-87.649617791,"(41.8776415962753, -87.64961779117584)",NEAR_WEST_SIDE
455,1695776953225711660,Public Rack - Roscoe St & Osceola Ave,1,1,In Service,41.942201,-87.813168,"(41.942201, -87.813168)",DUNNING
456,1695776956346497674,Public Rack - Normal Ave & 111th St,1,1,In Service,41.692303,-87.635478,"(41.692303, -87.635478)",ROSELAND
457,1695776963774913278,Public Rack - Union Ave & 111th St,1,1,In Service,41.692232,-87.640609,"(41.692232, -87.640609)",ROSELAND
458,1695776968069880576,Public Rack - Princeton Ave & 103rd Pl,1,1,In Service,41.70633,-87.630936,"(41.70633, -87.630936)",ROSELAND
459,1695776969825546724,Public Rack - Halsted St & 109th St,1,1,In Service,41.695655,-87.642804,"(41.695655, -87.642804)",MORGAN_PARK
460,24,Fairbanks Ct & Grand Ave,15,15,In Service,41.891847372,-87.620580196,"(41.89184737210993, -87.62058019638062)",NEAR_NORTH_SIDE
461,259,California Ave & Francis Pl (Temp),15,15,In Service,41.918491154,-87.697422802,"(41.91849115368695, -87.69742280244827)",LOGAN_SQUARE
462,350,Ashland Ave & Chicago Ave,15,15,In Service,41.895172713,-87.667547017,"(41.8951727127816, -87.66754701733589)",WEST_TOWN
463,1683527972235589660,Public Rack - Western Ave & Devon Ave,1,1,In Service,41.997579,-87.689713,"(41.997579, -87.689713)",WEST_RIDGE
464,115,Sheffield Ave & Wellington Ave,23,23,In Service,41.936253483,-87.652662098,"(41.9362534831413, -87.65266209840775)",LAKE_VIEW
465,102,Stony Island Ave & 67th St,11,11,In Service,41.773458499,-87.585339739,"(41.77345849948, -87.5853397391)",WOODLAWN
466,12,South Shore Dr & 71st St,15,15,In Service,41.766409457,-87.565687572,"(41.7664094567, -87.5656875719)",SOUTH_SHORE
467,124,Damen Ave & Cullerton St,15,15,In Service,41.854966519,-87.675699592,"(41.854966518753926, -87.67569959163664)",LOWER_WEST_SIDE
468,127,Lincoln Ave & Fullerton Ave,15,15,In Service,41.924161029,-87.646380365,"(41.924161029067626, -87.64638036489487)",LINCOLN_PARK
469,132,Wentworth Ave & 24th St (Temp),15,15,In Service,41.850083693,-87.632140517,"(41.85008369347577, -87.6321405172348)",ARMOUR_SQUARE
470,145,Mies van der Rohe Way & Chestnut St,19,19,In Service,41.898586651,-87.621915226,"(41.8985866514, -87.6219152258)",NEAR_NORTH_SIDE
471,156,Clark St & Wellington Ave,15,15,In Service,41.936496822,-87.647538658,"(41.9364968219, -87.6475386582)",LAKE_VIEW
472,157,DuSable Lake Shore Dr & Wellington Ave,15,15,In Service,41.936688449,-87.636829019,"(41.9366884494997, -87.63682901859283)",LAKE_VIEW
473,172,Rush St & Cedar St,11,11,In Service,41.902308701,-87.627690528,"(41.90230870122, -87.627690528)",NEAR_NORTH_SIDE
474,184,State St & 35th St,19,19,In Service,41.831036314,-87.626797557,"(41.8310363140161, -87.62679755687714)",DOUGLAS
475,217,Elizabeth (May) St & Fulton St,15,15,In Service,41.886616486,-87.658039927,"(41.886616486027656, -87.6580399274826)",NEAR_WEST_SIDE
476,239,Western Ave & Leland Ave,19,19,In Service,41.966399802,-87.688704282,"(41.966399801840986, -87.68870428204536)",LINCOLN_SQUARE
477,270,Stony Island Ave & 75th St,11,11,In Service,41.75866967,-87.586882871,"(41.7586696704, -87.586882871)",SOUTH_SHORE
478,278,Wallace St & 35th St,15,15,In Service,41.830707051,-87.641255334,"(41.830707051440854, -87.64125533401966)",BRIDGEPORT
479,286,Franklin St & Adams St (Temp),15,15,In Service,41.879434091,-87.635504007,"(41.87943409140013, -87.63550400733948)",LOOP
480,31,Franklin St & Chicago Ave,23,23,In Service,41.896746973,-87.635667622,"(41.896746973093805, -87.63566762208939)",NEAR_NORTH_SIDE
481,319,Greenview Ave & Diversey Pkwy,15,15,In Service,41.932589634,-87.665936351,"(41.93258963429789, -87.66593635082245)",LAKE_VIEW
482,325,Clark St & Winnemac Ave,19,19,In Service,41.97334764,-87.667855471,"(41.973347640473044, -87.6678554713726)",UPTOWN
483,34,Cannon Dr & Fullerton Ave,15,15,In Service,41.926755988,-87.634428785,"(41.9267559875, -87.6344287848)",LINCOLN_PARK
484,348,California Ave & 21st St,15,15,In Service,41.853804066,-87.695742399,"(41.8538040657915, -87.69574239850043)",SOUTH_LAWNDALE
485,135,Halsted St & 21st St,11,11,In Service,41.853779811,-87.646602988,"(41.85377981072743, -87.6466029882431)",LOWER_WEST_SIDE
486,211,St. Clair St & Erie St,19,19,In Service,41.894345137,-87.622798383,"(41.89434513742426, -87.62279838323593)",NEAR_NORTH_SIDE
487,1683527935820123118,Public Rack - Exchange Ave & 73rd Pl,1,1,In Service,41.76261263,-87.56381871,"(41.76261263, -87.56381871)",SOUTH_SHORE
488,1695777019609488196,Public Rack - Langley Ave & 49th St,3,3,In Service,41.805218,-87.609076,"(41.805218, -87.609076)",GRAND_BOULEVARD
489,133,Kingsbury St & Kinzie St,31,31,In Service,41.889176833,-87.638505772,"(41.88917683258, -87.6385057718)",NEAR_NORTH_SIDE
490,161,Rush St & Superior St,23,23,In Service,41.895764746,-87.625908033,"(41.89576474564, -87.6259080327)",NEAR_NORTH_SIDE
491,208,Laflin St & Cullerton St,15,15,In Service,41.854914576,-87.663559914,"(41.85491457576575, -87.66355991363525)",LOWER_WEST_SIDE
492,1695776941114034252,Public Rack - Pulaski Rd & Polk St,1,1,In Service,41.8703637,-87.7252556,"(41.8703637, -87.7252556)",WEST_GARFIELD_PARK
493,1695780087377656308,Public Rack - Hamlin Ave & Madison St,1,1,In Service,41.880833,-87.720797,"(41.880833, -87.720797)",WEST_GARFIELD_PARK
494,173,Mies van der Rohe Way & Chicago Ave,15,15,In Service,41.896944626,-87.621757686,"(41.896944626370825, -87.62175768613815)",NEAR_NORTH_SIDE
495,352,Jeffery Blvd & 67th St,11,11,In Service,41.773517551,-87.577142826,"(41.77351755125, -87.5771428255)",WOODLAWN
496,353,Clark St & Touhy Ave,15,15,In Service,42.012560115,-87.674367115,"(42.01256011541, -87.6743671152)",ROGERS_PARK
497,354,Sheridan Rd & Greenleaf Ave,15,15,In Service,42.010586563,-87.662412095,"(42.01058656284, -87.6624120948)",ROGERS_PARK
498,356,Stony Island Ave & 71st St,11,11,In Service,41.766492937,-87.586460878,"(41.7664929373, -87.5864608775)",SOUTH_SHORE
499,359,Larrabee St & Division St,23,23,In Service,41.90348607,-87.643353494,"(41.90348607004, -87.6433534936)",NEAR_NORTH_SIDE
500,364,Larrabee St & Oak St,19,19,In Service,41.900219493,-87.642985468,"(41.90021949323, -87.6429854676)",NEAR_NORTH_SIDE
501,365,Halsted St & North Branch St,15,15,In Service,41.899390285,-87.648544908,"(41.89939028549696, -87.64854490756989)",NEAR_NORTH_SIDE
502,366,Loomis St & Archer Ave,11,11,In Service,41.84163254,-87.657434953,"(41.84163253965, -87.6574349533)",BRIDGEPORT
503,368,Ashland Ave & Archer Ave,15,15,In Service,41.839208684,-87.665609859,"(41.83920868403, -87.6656098589)",LOWER_WEST_SIDE
504,369,Wood St & 35th St,11,11,In Service,41.830104654,-87.670298309,"(41.83010465416, -87.6702983089)",MCKINLEY_PARK
505,37,Dearborn St & Adams St,19,19,In Service,41.879356359,-87.629791036,"(41.8793563587, -87.6297910363)",LOOP
506,370,Calumet Ave & 21st St,15,15,In Service,41.854184249,-87.619153741,"(41.85418424947, -87.6191537415)",NEAR_SOUTH_SIDE
507,373,Kedzie Ave & Chicago Ave,11,11,In Service,41.895465303,-87.706127884,"(41.89546530305, -87.7061278837)",HUMBOLDT_PARK
508,374,Western Ave & Walton St,23,23,In Service,41.898417689,-87.686596016,"(41.89841768945, -87.6865960164)",WEST_TOWN
509,375,Sacramento Blvd & Franklin Blvd,11,11,In Service,41.890468792,-87.702607512,"(41.89046879243862, -87.70260751247406)",HUMBOLDT_PARK
510,376,Artesian Ave & Hubbard St,35,35,In Service,41.88949182,-87.688219365,"(41.88949181977, -87.6882193648)",WEST_TOWN
511,38,Clark St & Lake St,27,27,In Service,41.886020828,-87.630876058,"(41.88602082773, -87.6308760584)",LOOP
512,382,Western Ave & Congress Pkwy,19,19,In Service,41.874748851,-87.686445276,"(41.87474885079, -87.6864452757)",NEAR_WEST_SIDE
513,386,Halsted St & 56th St,11,11,In Service,41.792929646,-87.644990057,"(41.79292964599, -87.6449900565)",ENGLEWOOD
514,39,Wabash Ave & Adams St,23,23,In Service,41.879472352,-87.625688606,"(41.87947235235, -87.6256886059)",LOOP
515,390,Wentworth Ave & 63rd St,11,11,In Service,41.780079633,-87.629746305,"(41.78007963264, -87.6297463052)",ENGLEWOOD
516,391,Halsted St & 69th St,11,11,In Service,41.76906172,-87.644613578,"(41.76906172032, -87.6446135779)",ENGLEWOOD
517,392,Perry Ave & 69th St,11,11,In Service,41.76929309,-87.628195929,"(41.76929308995, -87.6281959291)",GREATER_GRAND_CROSSING
518,393,Calumet Ave & 71st St,11,11,In Service,41.765508006,-87.616917925,"(41.76550800581, -87.616917925)",GREATER_GRAND_CROSSING
519,395,Jeffery Blvd & 76th St,11,11,In Service,41.757120068,-87.575839359,"(41.75712006802, -87.5758393587)",SOUTH_SHORE
520,398,Rainbow Beach,15,15,In Service,41.757871448,-87.54938625,"(41.75787144829, -87.54938625)",SOUTH_SHORE
521,399,South Shore Dr & 74th St,11,11,In Service,41.76218896,-87.55927465,"(41.76218896038, -87.55927465)",SOUTH_SHORE
522,403,Wentworth Ave & 33rd St,15,15,In Service,41.834529886,-87.631822981,"(41.83452988563, -87.6318229814)",ARMOUR_SQUARE
523,406,Lake Park Ave & 35th St,19,19,In Service,41.831274235,-87.608799195,"(41.83127423549, -87.6087991946)",DOUGLAS
524,407,State St & Pershing Rd,11,11,In Service,41.823015238,-87.626568018,"(41.82301523798, -87.6265680185)",GRAND_BOULEVARD
525,409,Shields Ave & 43rd St,11,11,In Service,41.816207679,-87.63481935,"(41.81620767856, -87.6348193497)",FULLER_PARK
526,41,Federal St & Polk St,19,19,In Service,41.872077633,-87.629543773,"(41.87207763285, -87.6295437729)",LOOP
527,410,Prairie Ave & 43rd St,15,15,In Service,41.816658893,-87.619412462,"(41.81665889302, -87.6194124619)",GRAND_BOULEVARD
528,411,Halsted St & 47th Pl,11,11,In Service,41.808133915,-87.645616554,"(41.80813391481, -87.6456165545)",NEW_CITY
529,412,Princeton Ave & 47th St,11,11,In Service,41.809317709,-87.633449288,"(41.80931770924, -87.633449288)",FULLER_PARK
530,2,Buckingham Fountain,39,39,Not In Service,41.876423,-87.620339,"(41.876423, -87.620339)",LOOP
531,40,LaSalle St & Adams St,15,15,In Service,41.879344373,-87.631985221,"(41.87934437346, -87.6319852213)",LOOP
532,36,Franklin St & Jackson Blvd,39,39,In Service,41.877707956,-87.635321141,"(41.8777079559, -87.6353211408)",LOOP
533,384,Halsted St & 51st St,11,11,In Service,41.80183164,-87.645213904,"(41.80183164049, -87.645213904)",NEW_CITY
534,413,Woodlawn Ave & Lake Park Ave,15,15,In Service,41.81409271,-87.597005148,"(41.81409271048, -87.5970051479)",KENWOOD
535,415,Calumet Ave & 51st St,11,11,In Service,41.802294651,-87.61805358,"(41.80229465088, -87.6180535802)",GRAND_BOULEVARD
536,418,Ellis Ave & 53rd St,11,11,In Service,41.799336263,-87.600958115,"(41.79933626261, -87.6009581145)",HYDE_PARK
537,420,Ellis Ave & 55th St,19,19,In Service,41.794300621,-87.601449773,"(41.79430062054, -87.6014497734)",HYDE_PARK
538,421,MLK Jr Dr & 56th St,11,11,In Service,41.793429457,-87.615853262,"(41.79342945658, -87.6158532619)",WASHINGTON_PARK
539,422,DuSable Museum,11,11,In Service,41.791568011,-87.607852177,"(41.79156801058, -87.6078521774)",WASHINGTON_PARK
540,424,Museum of Science and Industry,27,27,In Service,41.79172821,-87.583945009,"(41.79172820953, -87.583945009)",HYDE_PARK
541,426,Ellis Ave & 60th St,19,19,In Service,41.785097146,-87.601072761,"(41.78509714636, -87.6010727606)",WOODLAWN
542,431,Eberhart Ave & 61st St,11,11,In Service,41.784071073,-87.614483535,"(41.784071072761, -87.61448353528975)",WOODLAWN
543,428,Dorchester Ave & 63rd St,11,11,In Service,41.780405646,-87.591415989,"(41.7804056457, -87.5914159893)",WOODLAWN
544,43,Michigan Ave & Washington St,43,43,In Service,41.883984065,-87.624683976,"(41.8839840647265, -87.6246839761734)",LOOP
545,430,MLK Jr Dr & 63rd St,11,11,In Service,41.780080637,-87.615942857,"(41.78008063659, -87.6159428567)",GREATER_GRAND_CROSSING
546,433,Kedzie Ave & Harrison St,11,11,In Service,41.873599675,-87.704870749,"(41.87359967462, -87.7048707493)",EAST_GARFIELD_PARK
547,434,Ogden Ave & Roosevelt Rd,19,19,In Service,41.866501483,-87.68469707,"(41.86650148316, -87.68469707)",NEAR_WEST_SIDE
548,435,Kedzie Ave & Roosevelt Rd,11,11,In Service,41.866492782,-87.706496176,"(41.86649278172, -87.7064961757)",NORTH_LAWNDALE
549,437,Washtenaw Ave & Ogden Ave,15,15,In Service,41.861930493,-87.693450451,"(41.86193049278259, -87.69345045089722)",NORTH_LAWNDALE
550,438,Central Park Ave & Ogden Ave,15,15,In Service,41.854063504,-87.715117335,"(41.854063503874464, -87.71511733531952)",NORTH_LAWNDALE
551,441,Kedzie Ave & 24th St,11,11,In Service,41.848190945,-87.705413746,"(41.84819094491, -87.7054137458)",SOUTH_LAWNDALE
552,443,Millard Ave & 26th St,7,7,In Service,41.844531125,-87.715921998,"(41.84453112462163, -87.71592199802399)",SOUTH_LAWNDALE
553,445,California Ave & 26th St,11,11,In Service,41.843679915,-87.694968581,"(41.8436799145765, -87.69496858119965)",SOUTH_LAWNDALE
554,447,Glenwood Ave & Morse Ave,15,15,In Service,42.007971923,-87.665502394,"(42.00797192287, -87.6655023944)",ROGERS_PARK
555,448,Warren Park East,11,11,In Service,42.004549622,-87.680666145,"(42.00454962194, -87.6806661451)",WEST_RIDGE
556,449,Clark St & Columbia Ave,15,15,In Service,42.004450629,-87.672402405,"(42.00445062934, -87.6724024047)",ROGERS_PARK
557,451,Sheridan Rd & Loyola Ave,23,23,In Service,42.00104378,-87.661198243,"(42.00104377979, -87.6611982433)",ROGERS_PARK
558,453,Clark St & Schreiber Ave,15,15,In Service,41.999251822,-87.671377339,"(41.99925182186, -87.6713773393)",ROGERS_PARK
559,454,Broadway & Granville Ave,23,23,In Service,41.994779688,-87.660284535,"(41.9947796884, -87.6602845349)",EDGEWATER
560,455,Maplewood Ave & Peterson Ave,11,11,In Service,41.990236029,-87.69336964,"(41.99023602867, -87.6933696402)",WEST_RIDGE
561,457,Clark St & Elmdale Ave,15,15,In Service,41.990860448,-87.66972363,"(41.990860448125574, -87.66972362995148)",EDGEWATER
562,458,Broadway & Thorndale Ave,19,19,In Service,41.989742511,-87.660140621,"(41.98974251144, -87.6601406209)",EDGEWATER
563,461,Broadway & Ridge Ave,15,15,In Service,41.984044611,-87.660273829,"(41.9840446107, -87.6602738295)",EDGEWATER
564,464,Damen Ave & Foster Ave,15,15,In Service,41.975614805,-87.679459039,"(41.97561480459, -87.6794590387)",LINCOLN_SQUARE
565,466,Ridge Blvd & Touhy Ave,11,11,In Service,42.012132277,-87.682912644,"(42.01213227742, -87.6829126443)",ROGERS_PARK
566,467,Western Ave & Lunt Ave,15,15,In Service,42.008594397,-87.690492239,"(42.0085943972, -87.6904922389)",WEST_RIDGE
567,419,Lake Park Ave & 53rd St,15,15,In Service,41.799494294,-87.586449896,"(41.79949429373, -87.5864498959)",HYDE_PARK
568,442,California Ave & 23rd Pl,11,11,In Service,41.849109692,-87.695139807,"(41.84910969176, -87.6951398068)",SOUTH_LAWNDALE
569,444,Albany Ave & 26th St,11,11,In Service,41.844475014,-87.702013013,"(41.84447501366, -87.7020130128)",SOUTH_LAWNDALE
570,463,Clark St & Berwyn Ave,19,19,In Service,41.978030622,-87.668564916,"(41.978030622486564, -87.66856491565704)",EDGEWATER
571,425,Harper Ave & 59th St,15,15,In Service,41.787942813,-87.58831517,"(41.78794281287, -87.5883151702)",HYDE_PARK
572,468,Budlong Woods Library,11,11,In Service,41.983664709,-87.696422561,"(41.98366470886, -87.6964225611)",WEST_RIDGE
573,469,St. Louis Ave & Balmoral Ave,15,15,In Service,41.980394235,-87.716114961,"(41.98039423475, -87.7161149615)",NORTH_PARK
574,471,Francisco Ave & Foster Ave,15,15,In Service,41.975632725,-87.701419439,"(41.97563272521, -87.7014194389)",LINCOLN_SQUARE
575,472,Lincoln Ave & Winona St,15,15,In Service,41.974911297,-87.692502559,"(41.97491129677, -87.6925025594)",LINCOLN_SQUARE
576,474,Christiana Ave & Lawrence Ave,15,15,In Service,41.968354494,-87.711830667,"(41.96835449363, -87.7118306675)",ALBANY_PARK
577,476,Kedzie Ave & Leland Ave,15,15,In Service,41.966686362,-87.708051981,"(41.96668636205, -87.7080519806)",ALBANY_PARK
578,478,Rockwell St & Eastwood Ave,15,15,In Service,41.96590014,-87.693638494,"(41.96590013976, -87.6936384935)",LINCOLN_SQUARE
579,479,Drake Ave & Montrose Ave,15,15,In Service,41.961154076,-87.716569073,"(41.96115407569, -87.7165690733)",ALBANY_PARK
580,482,Campbell Ave & Montrose Ave,15,15,In Service,41.961525933,-87.691165041,"(41.96152593287, -87.6911650414)",LINCOLN_SQUARE
581,484,Monticello Ave & Irving Park Rd,15,15,In Service,41.954004839,-87.71912818,"(41.95400483876, -87.7191281797)",IRVING_PARK
582,485,Sawyer Ave & Irving Park Rd,15,15,In Service,41.953586179,-87.7093108,"(41.95358617895, -87.7093107999)",IRVING_PARK
583,486,Oakley Ave & Irving Park Rd,15,15,In Service,41.954340852,-87.686079624,"(41.95434085219, -87.6860796243)",NORTH_CENTER
584,487,California Ave & Byron St,19,19,In Service,41.952162193,-87.698051113,"(41.95216219326, -87.698051113)",IRVING_PARK
585,490,Troy St & Elston Ave,15,15,In Service,41.945243568,-87.706649901,"(41.94524356848, -87.7066499009)",AVONDALE
586,491,Talman Ave & Addison St,15,15,In Service,41.946635831,-87.694614758,"(41.9466358306, -87.694614758)",NORTH_CENTER
587,504,Campbell Ave & Fullerton Ave,15,15,In Service,41.924632472,-87.689307006,"(41.92463247165, -87.6893070063)",LOGAN_SQUARE
588,505,Winchester Ave & Elston Ave,15,15,In Service,41.92409085,-87.676460075,"(41.92409085038, -87.6764600747)",LOGAN_SQUARE
589,506,Spaulding Ave & Armitage Ave,15,15,In Service,41.917108035,-87.710220963,"(41.917108034789315, -87.71022096276283)",LOGAN_SQUARE
590,507,Humboldt Blvd & Armitage Ave,19,19,In Service,41.917513394,-87.701808955,"(41.91751339399, -87.7018089555)",LOGAN_SQUARE
591,508,Central Park Ave & North Ave,15,15,In Service,41.909656876,-87.716631952,"(41.90965687563, -87.7166319516)",HUMBOLDT_PARK
592,509,Troy St & North Ave,15,15,In Service,41.909769302,-87.705280487,"(41.90976930169, -87.7052804871)",WEST_TOWN
593,510,Spaulding Ave & Division St,11,11,In Service,41.902706594,-87.709219571,"(41.90270659438, -87.709219571)",HUMBOLDT_PARK
594,523,Eastlake Ter & Rogers Ave,15,15,In Service,42.020887281,-87.665057927,"(42.0208872805206, -87.66505792737007)",ROGERS_PARK
595,532,Austin Blvd & Lake St,11,11,In Service,41.887943794,-87.774273455,"(41.88794379427211, -87.77427345514297)",AUSTIN
596,561,Damen Ave & 59th St,11,11,In Service,41.785861065,-87.67414391,"(41.785861065132, -87.67414391040802)",WEST_ENGLEWOOD
597,57,Clinton St & Roosevelt Rd,15,15,In Service,41.867117783,-87.641087959,"(41.8671177825, -87.6410879593)",NEAR_WEST_SIDE
598,58,Elston Ave & Cortland St,23,23,In Service,41.916433429,-87.666746378,"(41.91643342912655, -87.66674637794495)",LOGAN_SQUARE
599,60,Dayton St & North Ave,19,19,In Service,41.910578035,-87.649421929,"(41.9105780349, -87.6494219288)",NEAR_NORTH_SIDE
600,67,Sheffield Ave & Fullerton Ave,27,27,In Service,41.925601882,-87.653708042,"(41.9256018819, -87.6537080423)",LINCOLN_PARK
601,672,Franklin St & Illinois St,11,11,In Service,41.89102331,-87.635479867,"(41.89102331025185, -87.63547986745834)",NEAR_NORTH_SIDE
602,673,Lincoln Park Conservatory,31,31,In Service,41.923931311,-87.635824531,"(41.92393131136619, -87.63582453131676)",LINCOLN_PARK
603,678,Halsted St & 73rd St,15,15,In Service,41.761605438,-87.644160977,"(41.76160543804394, -87.64416097666071)",ENGLEWOOD
604,511,Albany Ave & Bloomingdale Ave,15,15,In Service,41.914026713,-87.705126462,"(41.91402671273, -87.705126462)",LOGAN_SQUARE
605,56,Desplaines St & Kinzie St,27,27,In Service,41.888716036,-87.644447853,"(41.888716036, -87.6444478533)",WEST_TOWN
606,49,Dearborn St & Monroe St,39,39,In Service,41.881319815,-87.629520919,"(41.881319815, -87.6295209193)",LOOP
607,647,Elizabeth St & 59th St,7,7,In Service,41.78969688,-87.654697895,"(41.789696880483376, -87.65469789505005)",ENGLEWOOD
608,638,Clinton St & Jackson Blvd,31,31,In Service,41.878316612,-87.640981078,"(41.878316611830684, -87.64098107814789)",NEAR_WEST_SIDE
609,682,Eberhart Ave & 91st St,15,15,In Service,41.729285157,-87.611031532,"(41.729285157254864, -87.6110315322876)",CHATHAM
610,683,Ashland Ave & 78th St,15,15,In Service,41.752204849,-87.663699389,"(41.75220484941116, -87.66369938850403)",AUBURN_GRESHAM
611,685,Summit Ave & 86th St,15,15,In Service,41.737848477,-87.644899786,"(41.737848476733404, -87.64489978551863)",AUBURN_GRESHAM
612,686,East End Ave & 87th St,15,15,In Service,41.736815214,-87.582801282,"(41.73681521440671, -87.58280128240585)",CALUMET_HEIGHTS
613,689,Elizabeth St & 92nd St,15,15,In Service,41.726798964,-87.654290199,"(41.726798963701185, -87.65429019927979)",WASHINGTON_HEIGHTS
614,69,Damen Ave & Pierce Ave,23,23,In Service,41.909396007,-87.677691929,"(41.9093960065, -87.6776919292)",WEST_TOWN
615,691,Eggleston Ave & 92nd St,15,15,In Service,41.727575659,-87.634828091,"(41.727575659299575, -87.63482809066771)",WASHINGTON_HEIGHTS
616,692,Marquette Ave & 89th St,15,15,In Service,41.733668791,-87.558342218,"(41.733668790714724, -87.55834221839905)",SOUTH_CHICAGO
617,694,Houston Ave & 92nd St,15,15,In Service,41.728204215,-87.549700141,"(41.72820421535798, -87.54970014095306)",SOUTH_CHICAGO
618,695,Dauphin Ave & 103rd St,15,15,In Service,41.707250368,-87.607662678,"(41.7072503677818, -87.60766267776489)",ROSELAND
619,696,Indiana Ave & 103rd St,15,15,In Service,41.707170271,-87.61847198,"(41.70717027117756, -87.6184719800949)",ROSELAND
620,698,Cottage Grove Ave & 111th Pl,15,15,In Service,41.691709758,-87.610001564,"(41.69170975847015, -87.61000156402588)",PULLMAN
621,699,Vernon Ave & 107th St,15,15,In Service,41.700121379,-87.612259984,"(41.70012137923888, -87.61225998401642)",ROSELAND
622,700,Halsted St & 96th St,15,15,In Service,41.719712184,-87.643019557,"(41.719712183618824, -87.6430195569992)",WASHINGTON_HEIGHTS
623,701,Constance Ave & 95th St,15,15,In Service,41.722290741,-87.578968406,"(41.72229074095262, -87.57896840572357)",SOUTH_DEERING
624,702,Greenwood Ave & 91st St,15,15,In Service,41.728264268,-87.597298622,"(41.728264268162725, -87.59729862213135)",BURNSIDE
625,703,Greenwood Ave & 97th St,15,15,In Service,41.718703155,-87.597035766,"(41.71870315475741, -87.59703576564789)",PULLMAN
626,704,Avenue O & 134th St,15,15,In Service,41.651867802,-87.539671361,"(41.65186780228521, -87.53967136144637)",HEGEWISCH
627,705,Stony Island Ave & 90th St,15,15,In Service,41.731394943,-87.585743666,"(41.731394943302355, -87.58574366569519)",CALUMET_HEIGHTS
628,706,Dauphin Ave & 87th St,15,15,In Service,41.736559023,-87.601257563,"(41.73655902282214, -87.60125756263733)",CHATHAM
629,708,Clyde Ave & 87th St,15,15,In Service,41.737151464,-87.572740316,"(41.73715146431056, -87.57274031639099)",AVALON_PARK
630,709,Michigan Ave & 114th St,15,15,In Service,41.687014795,-87.621052265,"(41.68701479467118, -87.62105226516724)",ROSELAND
631,710,Burnham Greenway & 105th St,11,11,In Service,41.704575087,-87.52823174,"(41.7045750872071, -87.52823173999786)",EAST_SIDE
632,711,Halsted St & 111th St,15,15,In Service,41.692262556,-87.642611861,"(41.69226255589166, -87.64261186122894)",MORGAN_PARK
633,713,Major Taylor Trail & 115th St,15,15,In Service,41.684931595,-87.645288706,"(41.68493159519296, -87.6452887058258)",WEST_PULLMAN
634,714,State St & 123rd St,15,15,In Service,41.670643837,-87.622586489,"(41.67064383687979, -87.62258648872375)",WEST_PULLMAN
635,715,Major Taylor Trail & 124th St,15,15,In Service,41.668696353,-87.637113333,"(41.66869635332246, -87.63711333274841)",WEST_PULLMAN
636,71,Sangamon St & Lake St,23,23,In Service,41.885779252,-87.65102461,"(41.88577925240433, -87.65102460980414)",NEAR_WEST_SIDE
637,717,Big Marsh Park,15,15,In Service,41.685877056,-87.573823929,"(41.68587705562333, -87.57382392883301)",SOUTH_DEERING
638,697,Oglesby Ave & 100th St,15,15,In Service,41.713397484,-87.565841675,"(41.713397484422444, -87.56584167480469)",SOUTH_DEERING
639,679,Ashland Ave & 74th St,15,15,In Service,41.759236024,-87.663474083,"(41.75923602425868, -87.66347408294678)",WEST_ENGLEWOOD
640,7,Field Blvd & South Water St,19,19,In Service,41.886349063,-87.617516547,"(41.88634906269, -87.6175165471)",LOOP
641,681,Halsted St & 78th St,15,15,In Service,41.752487012,-87.643902157,"(41.75248701249013, -87.6439021574879)",AUBURN_GRESHAM
642,707,Torrence Ave & 106th St,15,15,In Service,41.70280085,-87.559726238,"(41.702800850225906, -87.55972623825073)",SOUTH_DEERING
643,1677249785174431770,Public Rack - Kilbourn Ave & Fullerton Ave,1,1,In Service,41.924447,-87.73998,"(41.924447, -87.73998)",HERMOSA
644,687,Loomis Blvd & 84th St,15,15,In Service,41.741486529,-87.658410072,"(41.741486528618054, -87.65841007232666)",AUBURN_GRESHAM
645,719,Avenue O & 118th St,15,15,In Service,41.681001459,-87.537931223,"(41.68100145911039, -87.5379312226869)",HEGEWISCH
646,720,Torrence Ave & 126th Pl,15,15,In Service,41.666312008,-87.557215691,"(41.66631200825726, -87.55721569061278)",HEGEWISCH
647,721,Walden Pkwy & 100th St,15,15,In Service,41.712164104,-87.667733431,"(41.71216410359803, -87.66773343086243)",BEVERLY
648,722,Commercial Ave & 130th St,15,15,In Service,41.659150428,-87.550762296,"(41.659150427597744, -87.55076229572296)",HEGEWISCH
649,723,Hale Ave & 107th St,11,11,In Service,41.699206168,-87.668918967,"(41.699206168127674, -87.66891896724701)",MORGAN_PARK
650,724,Homewood Ave & 115th St,15,15,In Service,41.684595072,-87.670708001,"(41.684595072026184, -87.67070800065994)",MORGAN_PARK
651,725,Halsted St & 104th St,15,15,In Service,41.705139789,-87.642424107,"(41.70513978893236, -87.6424241065979)",ROSELAND
652,712,Wentworth Ave & 104th St,15,15,In Service,41.705307997,-87.629216909,"(41.705307996998194, -87.62921690940857)",ROSELAND
653,726,Vincennes Ave & 104th St,15,15,In Service,41.704925565,-87.65686811,"(41.70492556499764, -87.65686810958869)",BEVERLY
654,727,Ada St & 113th St,15,15,In Service,41.687561623,-87.655475736,"(41.687561623357375, -87.65547573566435)",MORGAN_PARK
655,728,Western Ave & 111th St,23,23,In Service,41.691211035,-87.681297362,"(41.691211034981045, -87.68129736185074)",MORGAN_PARK
656,730,Lawndale Ave & 111th St,15,15,In Service,41.691319192,-87.712885737,"(41.69131919221066, -87.71288573741913)",MOUNT_GREENWOOD
657,731,Bradley Park,11,11,In Service,41.717878302,-87.564591765,"(41.717878301935, -87.56459176540375)",SOUTH_DEERING
658,732,Hegewisch Metra Station,15,15,In Service,41.648500763,-87.546089888,"(41.64850076266409, -87.54608988761902)",HEGEWISCH
659,734,Commercial Ave & 100th St,15,15,In Service,41.713317395,-87.551097572,"(41.71331739547703, -87.55109757184982)",SOUTH_DEERING
660,735,Western Ave & 104th St,15,15,In Service,41.704587102,-87.681203485,"(41.70458710218908, -87.68120348453522)",BEVERLY
661,736,Kedzie Ave & 110th St,11,11,In Service,41.692394746,-87.700960636,"(41.69239474587557, -87.70096063613892)",MOUNT_GREENWOOD
662,737,Chicago State University,23,23,In Service,41.718963422,-87.608295679,"(41.71896342165455, -87.60829567909241)",ROSELAND
663,738,Calumet Park,15,15,In Service,41.71370983,-87.530844212,"(41.71370983035615, -87.53084421157837)",EAST_SIDE
664,739,Altgeld Gardens,15,15,In Service,41.65666553,-87.598800659,"(41.656665529673724, -87.59880065917969)",RIVERDALE
665,74,Kingsbury St & Erie St,23,23,In Service,41.893808056,-87.641697228,"(41.89380805624359, -87.64169722795485)",NEAR_NORTH_SIDE
666,741,Yates Blvd & 93rd St,15,15,In Service,41.72616639,-87.566276193,"(41.726166390245105, -87.5662761926651)",CALUMET_HEIGHTS
667,742,Doty Ave & 111th St,15,15,In Service,41.695010449,-87.598714828,"(41.69501044938143, -87.59871482849121)",PULLMAN
668,748,Olive Harvey College,15,15,In Service,41.709581135,-87.590233684,"(41.70958113526255, -87.59023368358612)",PULLMAN
669,760,Lakefront Trail & Bryn Mawr Ave,19,19,In Service,41.984044115,-87.652281225,"(41.98404411519213, -87.65228122472763)",EDGEWATER
670,89,Financial Pl & Ida B Wells Dr,31,31,In Service,41.875023628,-87.633094043,"(41.8750236280333, -87.6330940425396)",LOOP
671,9,Leavitt St & Archer Ave,15,15,In Service,41.82879202,-87.680604459,"(41.82879201994, -87.6806044594)",MCKINLEY_PARK
672,99,McClurg Ct & Ohio St,19,19,In Service,41.89259212,-87.617289126,"(41.892592119709725, -87.61728912591934)",NEAR_NORTH_SIDE
673,1695776961235612130,Public Rack - Perry Ave & 111th St,1,1,In Service,41.692666,-87.626385,"(41.692666, -87.626385)",ROSELAND
674,753,State St & Chicago Ave,15,15,In Service,41.8966172,-87.628578544,"(41.89661720040753, -87.62857854366302)",NEAR_NORTH_SIDE
675,749,Burnham Greenway & 112th St,15,15,In Service,41.691773851,-87.530431151,"(41.69177385116831, -87.53043115139008)",EAST_SIDE
676,740,Loomis St & 89th St,15,15,In Service,41.732379753,-87.658069432,"(41.73237975329554, -87.65806943178177)",AUBURN_GRESHAM
677,1677249789469399070,Public Rack - Grand Ave & North Ave,2,2,In Service,41.909614,-87.734722,"(41.909614, -87.734722)",HUMBOLDT_PARK
678,1683527952999991298,Public Rack - Lorel Ave & Grand Ave,10,10,In Service,41.9176685,-87.7595531,"(41.9176685, -87.7595531)",BELMONT_CRAGIN
679,1677249793764366370,Public Rack - Homan Ave & 26th St,1,1,In Service,41.84456,-87.710058,"(41.84456, -87.710058)",SOUTH_LAWNDALE
680,1695776969825546726,Public Rack - Ave N & 106th St,1,1,In Service,41.702616,-87.538744,"(41.702616, -87.538744)",EAST_SIDE
681,96,Desplaines St & Randolph St,23,23,In Service,41.88461619,-87.644570585,"(41.88461618962, -87.6445705849)",NEAR_WEST_SIDE
682,1674190136467794156,Public Rack - 111th St - Morgan Park Metra,2,2,In Service,41.692738,-87.670569,"(41.692738, -87.670569)",MORGAN_PARK
683,1683527927230188516,Public Rack - Campbell Ave & Pratt Blvd,1,1,In Service,42.00507,-87.692643,"(42.00507, -87.692643)",WEST_RIDGE
684,1683527931525155818,Public Rack - Drake Ave & Leland Ave,2,2,In Service,41.9659853,-87.716876,"(41.9659853, -87.716876)",ALBANY_PARK
685,1683527942170819570,Public Rack - Jensen Park,1,1,In Service,41.964864,-87.720774,"(41.964864, -87.720774)",ALBANY_PARK
686,1683527948705025022,Public Rack - Kostner Ave & 16th St,1,1,In Service,41.8588018,-87.7343019,"(41.8588018, -87.7343019)",NORTH_LAWNDALE
687,1683527967940622362,Public Rack - Washtenaw Ave & Devon Ave,1,1,In Service,41.997764,-87.697221,"(41.997764, -87.697221)",WEST_RIDGE
688,1695776937826575008,Public Rack - Pulaski Rd & 5th Ave,1,1,In Service,41.8730082,-87.7252516,"(41.8730082, -87.7252516)",WEST_GARFIELD_PARK
689,1695776938005109486,Public Rack - Pulaski Rd & Lexington St,1,1,In Service,41.8715832,-87.7252086,"(41.8715832, -87.7252086)",WEST_GARFIELD_PARK
690,1674190145057728760,Public Rack - 63rd & Western Ave S,1,1,In Service,41.779196,-87.683589,"(41.779196, -87.683589)",CHICAGO_LAWN
691,1695780083082689004,Public Rack - Foster Ave & Drake Ave,2,2,In Service,41.975563,-87.717352,"(41.975563, -87.717352)",NORTH_PARK
692,1695776940340809768,Public Rack - Lockwood Ave & Diversey Ave,1,1,In Service,41.931541,-87.75904,"(41.931541, -87.75904)",BELMONT_CRAGIN
693,1695776942300076784,Public Rack - Central Park Ave & 16th St,1,1,In Service,41.858938,-87.7157269,"(41.858938, -87.7157269)",NORTH_LAWNDALE
694,1695776944055742932,Public Rack - Laporte Ave & Armitage Ave,1,1,In Service,41.917047,-87.750008,"(41.917047, -87.750008)",BELMONT_CRAGIN
695,1695776946416509604,Public Rack - Fullerton Ave & Lavergne Ave,1,1,In Service,41.92398,-87.75195,"(41.92398, -87.75195)",BELMONT_CRAGIN
696,1695776948350710230,Public Rack - Leclaire Ave & Division St,1,1,In Service,41.90205,-87.75305,"(41.90205, -87.75305)",AUSTIN
697,1695776950890011384,Public Rack - La Moyne Ave and Leamington Ave,2,2,In Service,41.906866,-87.754447,"(41.906866, -87.754447)",AUSTIN
698,1695780078787721700,Public Rack - Peterson Ave & Drake Ave,2,2,In Service,41.990119,-87.717337,"(41.990119, -87.717337)",NORTH_PARK
699,1695780078787721704,Public Rack - Peterson Ave & Bernard Ave,1,1,In Service,41.990234,-87.715634,"(41.990234, -87.715634)",NORTH_PARK
700,1695780087377656306,Public Rack - Kostner Ave & Diversey Ave,1,1,In Service,41.931803,-87.737285,"(41.931803, -87.737285)",HERMOSA
701,1695780091296484234,Public Rack - Pulaski Rd & Flournoy St,1,1,In Service,41.8724252,-87.7253448,"(41.8724252, -87.7253448)",WEST_GARFIELD_PARK
702,1448642175142467184,Avenue L & 114th St,0,0,In Service,41.6881169,-87.5365497,"(41.6881169, -87.5365497)",EAST_SIDE
703,296,Broadway & Belmont Ave,19,19,Not In Service,41.940106,-87.645451,"(41.940106, -87.645451)",LAKE_VIEW
704,322,Kimbark Ave & 53rd St,19,19,In Service,41.799568,-87.594747,"(41.799568, -87.594747)",HYDE_PARK
705,596,Benson Ave & Church St,15,15,In Service,42.048214,-87.683485,"(42.048214, -87.683485)",Not Found
706,502,California Ave & Altgeld St,15,15,In Service,41.92669,-87.697668,"(41.92669, -87.697668)",LOGAN_SQUARE
707,316,Damen Ave & Sunnyside Ave,19,19,In Service,41.96325,-87.679258,"(41.96325, -87.679258)",LINCOLN_SQUARE
708,1674190153647663368,Public Rack - Albany Ave & 103rd St,1,1,In Service,41.706747,-87.700047,"(41.706747, -87.700047)",MOUNT_GREENWOOD
709,220,Clark St & Drummond Pl,23,23,In Service,41.931248,-87.644336,"(41.931248, -87.644336)",LINCOLN_PARK
710,662,Dodge Ave & Mulford St,15,15,In Service,42.023463,-87.699595,"(42.023463, -87.699595)",Not Found
711,635,Fairbanks St & Superior St,11,11,In Service,41.895748,-87.620104,"(41.895748, -87.620104)",NEAR_NORTH_SIDE
712,480,Albany Ave & Montrose Ave,11,11,In Service,41.961041,-87.705866,"(41.961041, -87.705866)",IRVING_PARK
713,300,Broadway & Barry Ave,19,19,In Service,41.937582316,-87.644097805,"(41.93758231600629, -87.6440978050232)",LAKE_VIEW
714,334,DuSable Lake Shore Dr & Belmont Ave,19,19,In Service,41.940775,-87.639192,"(41.940775, -87.639192)",LAKE_VIEW
715,75,Canal St & Jackson Blvd,43,43,In Service,41.877245,-87.639366,"(41.877245, -87.639366)",NEAR_WEST_SIDE
716,408,Union Ave & Root St,11,11,In Service,41.819102,-87.643278,"(41.819102, -87.643278)",NEW_CITY
717,642,Latrobe Ave & Chicago Ave,7,7,In Service,41.894745,-87.756895,"(41.894745, -87.756895)",AUSTIN
718,537,Kenton Ave & Madison St,11,11,In Service,41.880708,-87.741018,"(41.880708, -87.741018)",AUSTIN
719,462,Winchester (Ravenswood) Ave & Balmoral Ave,15,15,In Service,41.979762,-87.67753,"(41.979762, -87.67753)",LINCOLN_SQUARE
720,533,Central Park Blvd & 5th Ave,11,11,In Service,41.875679,-87.71547,"(41.875679, -87.71547)",EAST_GARFIELD_PARK
721,170,Clinton St & 18th St,15,15,In Service,41.85795,-87.640826,"(41.85795, -87.640826)",LOWER_WEST_SIDE
722,225,Halsted St & Dickens Ave,23,23,In Service,41.919936,-87.64883,"(41.919936, -87.64883)",LINCOLN_PARK
723,283,LaSalle St & Jackson Blvd,35,35,In Service,41.878166,-87.631929,"(41.878166, -87.631929)",LOOP
724,481,California Ave & Montrose Ave,15,15,In Service,41.961068,-87.695439,"(41.961068, -87.695439)",IRVING_PARK
725,154,Southport Ave & Belmont Ave,15,15,In Service,41.93947775,-87.663747668,"(41.93947775040509, -87.6637476682663)",LAKE_VIEW
726,193,State St & 29th St,11,11,In Service,41.841707,-87.626938,"(41.841707, -87.626938)",DOUGLAS
727,530,Laramie Ave & Kinzie St,11,11,In Service,41.887832,-87.755527,"(41.887832, -87.755527)",AUSTIN
728,255,Indiana Ave & Roosevelt Rd,39,39,In Service,41.867888,-87.623041,"(41.867888, -87.623041)",LOOP
729,450,Warren Park West,11,11,In Service,42.001785,-87.688829,"(42.001785, -87.688829)",WEST_RIDGE
730,1674190166532565278,Public Rack - Ashland Ave & 73rd St,1,1,In Service,41.760817,-87.663499,"(41.760817, -87.663499)",WEST_ENGLEWOOD
731,130,Damen Ave & Division St,19,19,In Service,41.903266,-87.678435,"(41.903266, -87.678435)",WEST_TOWN
732,53,Wells St & Huron St,27,27,In Service,41.894722,-87.634362,"(41.894722, -87.634362)",NEAR_NORTH_SIDE
733,123,California Ave & Milwaukee Ave,15,15,In Service,41.922695,-87.697153,"(41.922695, -87.697153)",LOGAN_SQUARE
734,314,Ravenswood Ave & Berteau Ave,15,15,In Service,41.957921,-87.673567,"(41.957921, -87.673567)",LAKE_VIEW
735,94,Clark St & Armitage Ave,31,31,In Service,41.918306,-87.636282,"(41.918306, -87.636282)",LINCOLN_PARK
736,489,Drake Ave & Addison St,15,15,In Service,41.947326,-87.717582,"(41.947326, -87.717582)",IRVING_PARK
737,493,Western Ave & Roscoe St,11,11,In Service,41.943034,-87.687288,"(41.943034, -87.687288)",NORTH_CENTER
738,460,Clark St & Bryn Mawr Ave,15,15,In Service,41.983593,-87.669154,"(41.983593, -87.669154)",EDGEWATER
739,72,Wabash Ave & 16th St,39,39,In Service,41.860384,-87.625813,"(41.860384, -87.625813)",NEAR_SOUTH_SIDE
740,215,Damen Ave & Madison St,15,15,In Service,41.88137,-87.67493,"(41.88137, -87.67493)",NEAR_WEST_SIDE
741,587,Wabash Ave & 83rd St,11,11,In Service,41.743844072,-87.622768879,"(41.74384407231491, -87.62276887893677)",CHATHAM
742,163,Damen Ave & Clybourn Ave,15,15,In Service,41.931931,-87.677856,"(41.931931, -87.677856)",LINCOLN_PARK
743,128,Damen Ave & Chicago Ave,19,19,In Service,41.895769,-87.67722,"(41.895769, -87.67722)",WEST_TOWN
744,525,Glenwood Ave & Touhy Ave,15,15,In Service,42.012701,-87.666058,"(42.012701, -87.666058)",ROGERS_PARK
745,249,Montrose Harbor,31,31,In Service,41.963982,-87.638181,"(41.963982, -87.638181)",UPTOWN
746,119,Ashland Ave & Lake St,19,19,In Service,41.88592,-87.66717,"(41.88592, -87.66717)",NEAR_WEST_SIDE
747,496,Avers Ave & Belmont Ave,11,11,In Service,41.939408,-87.723574,"(41.939408, -87.723574)",AVONDALE
748,207,Emerald Ave & 28th St,15,15,In Service,41.84358,-87.645368,"(41.84358, -87.645368)",BRIDGEPORT
749,518,Conservatory Dr & Lake St,11,11,In Service,41.885502,-87.716866,"(41.885502, -87.716866)",EAST_GARFIELD_PARK
750,559,Racine Ave & Garfield Blvd,11,11,In Service,41.794228,-87.655073,"(41.794228, -87.655073)",NEW_CITY
751,312,Clarendon Ave & Gordon Ter,15,15,In Service,41.957866524,-87.649505138,"(41.95786652415174, -87.64950513839722)",UPTOWN
752,22,May St & Taylor St,15,15,In Service,41.8694821,-87.6554864,"(41.8694821, -87.6554864)",NEAR_WEST_SIDE
753,553,Elizabeth St & 47th St,11,11,In Service,41.80839,-87.656526,"(41.80839, -87.656526)",NEW_CITY
754,584,Ellis Ave & 83rd St,11,11,In Service,41.744123,-87.599034,"(41.744123, -87.599034)",CHATHAM
755,636,Orleans St & Hubbard St,11,11,In Service,41.890028,-87.636618,"(41.890028, -87.636618)",NEAR_NORTH_SIDE
756,582,Phillips Ave & 83rd St,11,11,In Service,41.744531,-87.56506,"(41.744531, -87.56506)",SOUTH_CHICAGO
757,15,Racine Ave & 18th St,15,15,In Service,41.858166,-87.656495,"(41.858166, -87.656495)",LOWER_WEST_SIDE
758,538,Cicero Ave & Flournoy St,11,11,In Service,41.872131,-87.746619,"(41.872131, -87.746619)",AUSTIN
759,205,Paulina St & 18th St,15,15,In Service,41.857901,-87.668745,"(41.857901, -87.668745)",LOWER_WEST_SIDE
760,253,Winthrop Ave & Lawrence Ave,15,15,In Service,41.968812,-87.657659,"(41.968812, -87.657659)",UPTOWN
761,343,Racine Ave & Wrightwood Ave,15,15,In Service,41.928887,-87.658971,"(41.928887, -87.658971)",LINCOLN_PARK
762,497,Kimball Ave & Belmont Ave,15,15,In Service,41.939398,-87.711561,"(41.939398, -87.711561)",AVONDALE
763,126,Clark St & North Ave,15,15,In Service,41.911974,-87.631942,"(41.911974, -87.631942)",LINCOLN_PARK
764,541,Central Ave & Harrison St,11,11,In Service,41.872993,-87.764499,"(41.872993, -87.764499)",AUSTIN
765,144,Larrabee St & Webster Ave,19,19,In Service,41.921822,-87.64414,"(41.921822, -87.64414)",LINCOLN_PARK
766,4,Burnham Harbor,23,23,In Service,41.857411787,-87.613791525,"(41.85741178707404, -87.61379152536392)",NEAR_SOUTH_SIDE
767,601,Central St Metra,15,15,In Service,42.063598,-87.69873,"(42.063598, -87.69873)",Not Found
768,567,May St & 69th St,11,11,In Service,41.768938,-87.652934,"(41.768938, -87.652934)",ENGLEWOOD
769,594,Western Blvd & 48th Pl,11,11,In Service,41.805661,-87.683392,"(41.805661, -87.683392)",NEW_CITY
770,179,MLK Jr Dr & Pershing Rd,15,15,In Service,41.8246,-87.61678,"(41.8246, -87.61678)",DOUGLAS
771,345,Lake Park Ave & 56th St,19,19,In Service,41.793242,-87.587782,"(41.793242, -87.587782)",HYDE_PARK
772,16,Paulina Ave & North Ave,15,15,In Service,41.909854652,-87.66993016,"(41.90985465216731, -87.66993016004562)",WEST_TOWN
773,73,Jefferson St & Monroe St,19,19,In Service,41.880329634,-87.642745972,"(41.880329633634624, -87.64274597167967)",NEAR_WEST_SIDE
774,182,Wells St & Elm St,23,23,In Service,41.903222,-87.634324,"(41.903222, -87.634324)",NEAR_NORTH_SIDE
775,61,Wood St & Milwaukee Ave,19,19,In Service,41.907655,-87.672552,"(41.907655, -87.672552)",WEST_TOWN
776,544,Austin Blvd & Madison St,11,11,In Service,41.880281,-87.774453,"(41.880281, -87.774453)",AUSTIN
777,336,Cottage Grove Ave & 47th St,15,15,In Service,41.809855,-87.606755,"(41.809855, -87.606755)",GRAND_BOULEVARD
778,396,Yates Blvd & 75th St,11,11,In Service,41.758768,-87.56644,"(41.758768, -87.56644)",SOUTH_SHORE
779,143,Sedgwick St & Webster Ave,15,15,In Service,41.922167,-87.638888,"(41.922167, -87.638888)",LINCOLN_PARK
780,554,Damen Ave & 51st St,7,7,In Service,41.800908,-87.674684,"(41.800908, -87.674684)",NEW_CITY
781,565,Ashland Ave & 66th St,7,7,In Service,41.774074,-87.663815,"(41.774074, -87.663815)",WEST_ENGLEWOOD
782,100,Orleans St & Merchandise Mart Plaza,35,35,In Service,41.888243,-87.63639,"(41.888243, -87.63639)",NEAR_NORTH_SIDE
783,653,Cornell Dr & Hayes Dr,11,11,In Service,41.780595,-87.584846,"(41.780595, -87.584846)",WOODLAWN
784,299,Halsted St & Roscoe St,15,15,In Service,41.94367,-87.64895,"(41.94367, -87.64895)",LAKE_VIEW
